FacName,FacStreet,FacCity,FacState,RegistryID,FacCounty,FacLat,FacLong,FacSNCFlg,FacQtrsWithNC,FacPenaltyCount,GHGCO2Releases,TRIReleasesTransfers,FacMapFlg,"DFR URL"
"OAK CREEK GENERATING STATION (NORTH / ELM ROAD)","4801 E ELM RD","OAK CREEK",WI,110064089490,MILWAUKEE,42.84925,-87.83214,N,2,,7944070,,Y,https://echo.epa.gov/detailed-facility-report?fid=110064089490
"ALLIANT ENERGY - WPL - COLUMBIA ENERGY CENTER","W8375 MURRAY RD",PARDEEVILLE,WI,110000420385,COLUMBIA,43.4861,-89.4204,N,0,,7195816,428520,Y,https://echo.epa.gov/detailed-facility-report?fid=110000420385
"OAK CREEK GENERATING STATION (SOUTH)","11060 S CHICAGO RD","OAK CREEK",WI,110000417709,MILWAUKEE,42.8457,-87.8294,N,1,,5112144,590334,Y,https://echo.epa.gov/detailed-facility-report?fid=110000417709
WESTON,"2491 OLD HWY 51",KRONENWETTER,WI,110043779783,MARATHON,44.858039,-89.644665,N,2,1,4164059,897247,Y,https://echo.epa.gov/detailed-facility-report?fid=110043779783
"EDGEWATER GENERATING STATION","3739 LAKESHORE DRIVE",SHEBOYGAN,WI,110000416871,SHEBOYGAN,43.715592,-87.70775,N,2,,3442633,219026,Y,https://echo.epa.gov/detailed-facility-report?fid=110000416871
"PORT WASHINGTON GENERATING STATION","146 SOUTH WISCONSIN ST","PORT WASHINGTON",WI,110043810276,OZAUKEE,43.384505,-87.869704,N,1,,2205813,,Y,https://echo.epa.gov/detailed-facility-report?fid=110043810276
"PLEASANT PRAIRIE POWER PLANT","8000 95TH ST","PLEASANT PRAIRIE",WI,110000417433,KENOSHA,42.5381,-87.9033,N,0,,2088669,238859,Y,https://echo.epa.gov/detailed-facility-report?fid=110000417433
"DAIRYLAND POWER CO-OP J P MADGETT","500 OLD STATE HWY 35",ALMA,WI,110067215463,BUFFALO,44.3026,-91.9126,N,0,,2086250,,Y,https://echo.epa.gov/detailed-facility-report?fid=110067215463
"FOX ENERGY CO LLC","N2310 EAST FRONTAGE ROAD",KAUKAUNA,WI,110023013228,OUTAGAMIE,44.3208,-88.2089,N,0,,1237611,,Y,https://echo.epa.gov/detailed-facility-report?fid=110023013228
"RIVERSIDE ENERGY CENTER","1401 W B-R TOWNLINE RD",BELOIT,WI,110013294087,ROCK,42.58442,-89.03672,Y,3,,1196411,,Y,https://echo.epa.gov/detailed-facility-report?fid=110013294087
"WISCONSIN PUBLIC SERVICE - PULLIAM POWER PLANT","1530 NORTH BYLSBY AVE","GREEN BAY",WI,110000421534,BROWN,44.54119,-88.01279,N,2,1,657293,280463,Y,https://echo.epa.gov/detailed-facility-report?fid=110000421534
"GRAYMONT LIME PLANT","800 HILL AVE",SUPERIOR,WI,110007346229,DOUGLAS,46.731,-92.0765,Y,9,1,597021,270012,Y,https://echo.epa.gov/detailed-facility-report?fid=110007346229
"CORENSO NORTH AMERICA PAPERBOARD MANUFACTURING","310 3RD AVE N","WISCONSIN RAPIDS",WI,110000573718,WOOD,44.394583,-89.827238,N,0,,525267,74623,Y,https://echo.epa.gov/detailed-facility-report?fid=110000573718
"GEORGIA-PACIFIC CONSUMER PRODUCTS LP","1919 SOUTH BROADWAY AVENUE","GREEN BAY",WI,110013863275,BROWN,44.4925,-88.0323,N,4,,384810,214257,Y,https://echo.epa.gov/detailed-facility-report?fid=110013863275
"THILMANY PAPER MILL","600 THILMANY RD",KAUKAUNA,WI,110000420973,OUTAGAMIE,44.2829,-88.2518,N,7,,358721,1046593,Y,https://echo.epa.gov/detailed-facility-report?fid=110000420973
"WISCONSIN ELECTRIC POWER COMPANY D/B/A WE ENERGIES-VALLEY STATION","1035 W CANAL ST",MILWAUKEE,WI,110000419299,MILWAUKEE,43.030372,-87.919832,N,0,,351762,,Y,https://echo.epa.gov/detailed-facility-report?fid=110000419299
"WHITEWATER COGENERATION FACILITY","111 COUNTY HWY U",WHITEWATER,WI,110043795970,WALWORTH,42.855385,-88.730028,N,5,,351320,34143,Y,https://echo.epa.gov/detailed-facility-report?fid=110043795970
"GRAYMONT WESTERN LIME - EDEN","N4520 COUNTY ROAD V",EDEN,WI,110000593910,"FOND DU LAC",43.704601,-88.384912,N,0,,327615,76004,Y,https://echo.epa.gov/detailed-facility-report?fid=110000593910
"DOMTAR NEKOOSA PAPER MILL","301 POINT BASSE AVE.",NEKOOSA,WI,110040877619,WOOD,44.3143,-89.8962,N,0,,284170,356856,Y,https://echo.epa.gov/detailed-facility-report?fid=110040877619
"ROCKGEN ENERGY LLC","2346 CLEARVIEW RD",CAMBRIDGE,WI,110013294069,DANE,42.9766,-89.0488,N,0,,274039,,Y,https://echo.epa.gov/detailed-facility-report?fid=110013294069
"APPLETON COATED L.L.C. LOCKS MILL","540 PROSPECT STREET","COMBINED LOCKS",WI,110017419523,OUTAGAMIE,44.269643,-88.308421,N,3,,230912,17141,Y,https://echo.epa.gov/detailed-facility-report?fid=110017419523
"THYSSENKRUPP WAUPACA PLANTS 2 & 3","1955 BRUNNER DRIVE",WAUPACA,WI,110043802267,WAUPACA,44.3559,-89.054,N,0,,219080,2599214,Y,https://echo.epa.gov/detailed-facility-report?fid=110043802267
"SHEBOYGAN FALLS ENERGY FACILITY","N5787 BRIDGEWOOD RD","SHEBOYGAN FALLS",WI,110018881931,SHEBOYGAN,43.7507,-87.88063,N,0,,218203,,Y,https://echo.epa.gov/detailed-facility-report?fid=110018881931
"EXPERA SPECIALTY SOLUTIONS  LLC - MOSINEE MILL","100 MAIN ST",MOSINEE,WI,110000422043,MARATHON,44.791101,-89.700253,N,5,,208027,338541,Y,https://echo.epa.gov/detailed-facility-report?fid=110000422043
"WAUSAU PAPER MILLS LLC","515 WEST DAVENPORT STREET",RHINELANDER,WI,110000422383,ONEIDA,45.6391,-89.421,N,3,,206779,114706,Y,https://echo.epa.gov/detailed-facility-report?fid=110000422383
"UW MADISON CHARTER STREET HEATING PLANT (DOA)","117 N CHARTER ST",MADISON,WI,110007346194,DANE,43.07034,-89.4057,N,2,,193412,,Y,https://echo.epa.gov/detailed-facility-report?fid=110007346194
"MG&E- WEST CAMPUS COGENERATION FACILITY","515 WALNUT STREET",MADISON,WI,110022398369,DANE,43.07513,-89.42513,N,0,,192168,31529,Y,https://echo.epa.gov/detailed-facility-report?fid=110022398369
"BIRON MILL","621 BIRON DR",BIRON,WI,110000573692,WOOD,44.4289,-89.7817,N,0,,186000,231967,Y,https://echo.epa.gov/detailed-facility-report?fid=110000573692
"CARMEUSE LIME & STONE MANITOWOC OPERATION","4110 ROCKWOOD RD",MANITOWOC,WI,110016858916,MANITOWOC,44.16799,-87.70028,N,6,1,181372,51,Y,https://echo.epa.gov/detailed-facility-report?fid=110016858916
"MANITOWOC PUBLIC UTILITIES-ELECTRIC DIV","1303 S 8TH ST",MANITOWOC,WI,110000421384,MANITOWOC,44.0822,-87.65784,N,0,,178230,583089,Y,https://echo.epa.gov/detailed-facility-report?fid=110000421384
"PACKAGING CORPORATION OF AMERICA-TOMAHAWK","N9090 COUNTY ROAD E",TOMAHAWK,WI,110000422267,LINCOLN,45.450849,-89.740303,N,0,,173944,673470,Y,https://echo.epa.gov/detailed-facility-report?fid=110000422267
"WEST MARINETTE","W1830 CLEVELAND AVENUE",PESHTIGO,WI,110002121515,MARINETTE,45.085404,-87.688381,N,0,,172640,,Y,https://echo.epa.gov/detailed-facility-report?fid=110002121515
"PROCTER & GAMBLE PAPER PRODUCTS - FOX RIVER PLANT","501 EASTMAN AVE","GREEN BAY",WI,110043810043,BROWN,44.5241,-88.0031,N,4,,168119,5,Y,https://echo.epa.gov/detailed-facility-report?fid=110043810043
"WPL - NEENAH GENERATING STATION","200 COUNTY ROAD CB",NEENAH,WI,110040965462,WINNEBAGO,44.19339,-88.50658,N,0,,142885,,Y,https://echo.epa.gov/detailed-facility-report?fid=110040965462
"DEPERE ENERGY CENTER","112 N 5TH ST","DE PERE",WI,110043815565,BROWN,44.448571,-88.072232,N,0,,138055,,Y,https://echo.epa.gov/detailed-facility-report?fid=110043815565
"HUSKY ENERGY - SUPERIOR REFINERY","2407 STINSON AVE",SUPERIOR,WI,110000422962,DOUGLAS,46.6915,-92.072,N,10,4,127895,268139,Y,https://echo.epa.gov/detailed-facility-report?fid=110000422962
"MARQUIS ENERGY - WISCONSIN LLC","N9585 STATE ROAD 80",NECEDAH,WI,110038364221,JUNEAU,43.99187,-90.07219,N,0,,124181,16879,Y,https://echo.epa.gov/detailed-facility-report?fid=110038364221
"VALERO RENEWABLE FUELS","N5355 JUNCTION RD",JEFFERSON,WI,110000419789,JEFFERSON,43.035135,-88.791556,N,5,,119469,17055,Y,https://echo.epa.gov/detailed-facility-report?fid=110000419789
"WE ENERGIES CONCORD STATION","499 S CONCORD AVE",WATERTOWN,WI,110016940159,JEFFERSON,43.167352,-88.687812,N,0,,112230,,Y,https://echo.epa.gov/detailed-facility-report?fid=110016940159
"BADGER STATE ETHANOL INC","820 WEST 17TH STREET",MONROE,WI,110038166365,GREEN,42.5949,-89.66691,Y,6,,110079,5521,Y,https://echo.epa.gov/detailed-facility-report?fid=110038166365
"CARDINAL FG","1650 MOHR ROAD",PORTAGE,WI,110000550298,COLUMBIA,43.55865,-89.49912,N,1,,109568,10,Y,https://echo.epa.gov/detailed-facility-report?fid=110000550298
"JANESVILLE CITY/ROCK COUNTY LANDFILL","525 BLACK BRIDGE RD",JANESVILLE,WI,110038091043,ROCK,42.702781,-89.023611,N,0,,106828,,Y,https://echo.epa.gov/detailed-facility-report?fid=110038091043
"GRAYMONT WESTERN LIME INC","101 JAMES ST","GREEN BAY",WI,110000421552,BROWN,44.52438,-88.01261,Y,6,,104700,29,Y,https://echo.epa.gov/detailed-facility-report?fid=110000421552
"CARDINAL FG","2200 STOKKE PARKWAY",MENOMONIE,WI,110014365588,DUNN,44.91034,-91.8788,N,0,,97702,147,Y,https://echo.epa.gov/detailed-facility-report?fid=110014365588
"THYSSENKRUPP WAUPACA PLANT 1","406 NORTH DIVISION STREET",WAUPACA,WI,110017412771,WAUPACA,44.3621,-89.0817,N,1,,97119,1601769,Y,https://echo.epa.gov/detailed-facility-report?fid=110017412771
"UNITED WISCONSIN GRAIN PRODUCERS LLC","W1231 TESSMANN DR",FRIESLAND,WI,110031001421,COLUMBIA,43.5706,-89.0613,N,8,,91699,11525,Y,https://echo.epa.gov/detailed-facility-report?fid=110031001421
"MMSD-JONES ISLAND WASTEWATER TREATMENT PLANT","700 E JONES ST",MILWAUKEE,WI,110013962514,MILWAUKEE,43.01932,-87.8978,N,1,,90912,,Y,https://echo.epa.gov/detailed-facility-report?fid=110013962514
"UNITED ETHANOL LLC","1250 CHICAGO ST.",MILTON,WI,110023153969,ROCK,42.75991,-88.91711,N,0,,90070,3563,Y,https://echo.epa.gov/detailed-facility-report?fid=110023153969
"STORA ENSO NA STEVENS POINT","707 ARLINGTON PL","STEVENS POINT",WI,110000544215,PORTAGE,44.51942,-89.58392,N,0,,89951,26948,Y,https://echo.epa.gov/detailed-facility-report?fid=110000544215
"GREEN BAY PACKAGING INC - GB MILL DIV","1601 N QUINCY ST","GREEN BAY",WI,110000421464,BROWN,44.52666,-87.99876,Y,2,,88265,15073,Y,https://echo.epa.gov/detailed-facility-report?fid=110000421464
"FOX RIVER VALLEY ETHANOL, LLC","4995 STATE ROAD 91",OSHKOSH,WI,110056339886,WINNEBAGO,43.980233,-88.651815,N,0,,86935,4529,Y,https://echo.epa.gov/detailed-facility-report?fid=110056339886
"SCA TISSUE MENASHA PAPER MILL","190 THIRD ST",MENASHA,WI,110005425682,WINNEBAGO,44.204756,-88.45216,N,0,,86786,124605,Y,https://echo.epa.gov/detailed-facility-report?fid=110005425682
"BIG RIVER RESOURCES BOYCEVILLE LLC","N10185 370TH STREET",BOYCEVILLE,WI,110031001467,DUNN,45.050596,-91.980063,N,0,,83677,19649,Y,https://echo.epa.gov/detailed-facility-report?fid=110031001467
"DIDION MILLING INC - ETHANOL PLANT","N7088 HWY 146",CAMBRIA,WI,110033219078,COLUMBIA,43.53731,-89.10315,Y,1,,82412,,Y,https://echo.epa.gov/detailed-facility-report?fid=110033219078
"MARATHON COUNTY LANDFILL","18500 RINGLE AVENUE",RINGLE,WI,110014013441,MARATHON,44.890439,-89.384867,N,0,,81479,,Y,https://echo.epa.gov/detailed-facility-report?fid=110014013441
"NEENAH FOUNDRY CO - PLANTS 2 AND 3 (W2179)","2121 BROOKS AVENUE",NEENAH,WI,110000423453,WINNEBAGO,44.16243,-88.47349,N,0,,75061,1179729,Y,https://echo.epa.gov/detailed-facility-report?fid=110000423453
"ADVANCED DISPOSAL SERVICES HICKORY MEADOWS LANDFILL LLC","W3105 SCHNEIDER RD",HILBERT,WI,110001929600,CALUMET,44.107451,-88.194894,N,0,,74995,,Y,https://echo.epa.gov/detailed-facility-report?fid=110001929600
"SAINT-GOBAIN CONTAINERS","815 S MCHENRY ST",BURLINGTON,WI,110040969805,RACINE,42.6626,-88.2906,N,0,1,74458,710,Y,https://echo.epa.gov/detailed-facility-report?fid=110040969805
"OUTAGAMIE COUNTY LANDFILL","1419 HOLLAND RD",APPLETON,WI,110014013478,OUTAGAMIE,44.292498,-88.340023,N,0,,74345,,Y,https://echo.epa.gov/detailed-facility-report?fid=110014013478
"ACE ETHANOL LLC","815 W MAPLE ST",STANLEY,WI,110013812918,CHIPPEWA,44.9589,-90.9608,N,0,,73526,9772,Y,https://echo.epa.gov/detailed-facility-report?fid=110013812918
"KOHLER CO-ENGINE PLANT","444 HIGHLAND DRIVE",KOHLER,WI,110000416381,SHEBOYGAN,43.7375,-87.763889,N,0,,72512,348045,Y,https://echo.epa.gov/detailed-facility-report?fid=110000416381
"MALLARD RIDGE LANDFILL","W8470 STATE RD 11",DELAVAN,WI,110043795881,WALWORTH,42.643578,-88.717968,N,0,,72142,,Y,https://echo.epa.gov/detailed-facility-report?fid=110043795881
"PARIS GENERATING STATION","335 N 172ND AVE","UNION GROVE",WI,110041698268,KENOSHA,42.665,-88.014444,N,2,,70047,,Y,https://echo.epa.gov/detailed-facility-report?fid=110041698268
"GREDE LLC - REEDSBURG","700 ASH STREET",REEDSBURG,WI,110000420606,SAUK,43.528049,-89.9996,N,2,,67298,315048,Y,https://echo.epa.gov/detailed-facility-report?fid=110000420606
"SUPERIOR CTY MOCCASIN MIKE LANDFILL","MOCCASIN MIKE ROAD",SUPERIOR,WI,110038087263,DOUGLAS,46.669699,-91.966796,N,0,,64500,,Y,https://echo.epa.gov/detailed-facility-report?fid=110038087263
"ATI LADISH FORGING","5481 S PACKARD AVE",CUDAHY,WI,110000417228,MILWAUKEE,42.947167,-87.8615,N,1,,63727,62386,Y,https://echo.epa.gov/detailed-facility-report?fid=110000417228
"WISCONSIN POWER & LIGHT - FOND DU LAC","N5356 RIVER ROAD","FOND DU LAC",WI,110013863186,"FOND DU LAC",43.7353,-88.4968,N,0,,57387,,Y,https://echo.epa.gov/detailed-facility-report?fid=110013863186
"THILMANY PAPERS NICOLET MILL","200 MAIN AVE",DEPERE,WI,110000420884,BROWN,44.44739,-88.06851,N,0,,56076,234,Y,https://echo.epa.gov/detailed-facility-report?fid=110000420884
"VEOLIA ES EMERALD PARK LANDFILL","W124 S10629 S 124TH",MUSKEGO,WI,110005509306,WAUKESHA,42.849682,-88.07639,N,0,,53263,,Y,https://echo.epa.gov/detailed-facility-report?fid=110005509306
"GEORGIA PACIFIC CONSUMER PRODUCTS LP","500 DAY ST","GREEN BAY",WI,110000421614,BROWN,44.52031,-88.0054,N,0,,52752,,Y,https://echo.epa.gov/detailed-facility-report?fid=110000421614
"VEOLIA ES GLACIER RIDGE LANDFILL","N7296 HWY V",HORICON,WI,110040959558,DODGE,43.459531,-88.554139,N,1,,52732,,Y,https://echo.epa.gov/detailed-facility-report?fid=110040959558
"NEENAH PAPER - WHITING MILL","3243 WHITING ROAD","STEVENS POINT",WI,110000850945,PORTAGE,44.48188,-89.56839,Y,4,,52583,,Y,https://echo.epa.gov/detailed-facility-report?fid=110000850945
"US PAPER MILLS CORP. - MENASHA MILL","69 WASHINGTON ST",MENASHA,WI,110000423426,WINNEBAGO,44.19793,-88.45321,N,0,,52061,77,Y,https://echo.epa.gov/detailed-facility-report?fid=110000423426
"LA CROSSE COUNTY SOLID WASTE MANAGEMENT FACILITY","6500 STATE RD 16","LA CROSSE",WI,110038457452,"LA CROSSE",43.883285,-91.162154,N,0,,46762,,Y,https://echo.epa.gov/detailed-facility-report?fid=110038457452
"WISCONSIN PAPERBOARD CORP","1514 E THOMAS AVE",MILWAUKEE,WI,110001923278,MILWAUKEE,43.06138,-87.89162,N,0,,45288,128,Y,https://echo.epa.gov/detailed-facility-report?fid=110001923278
"MCCAIN FOODS POTATO FACILITY","HWY 54 AND 110TH ST.",PLOVER,WI,110006142414,PORTAGE,44.454601,-89.540802,N,1,,43209,1036234,Y,https://echo.epa.gov/detailed-facility-report?fid=110006142414
"MILWAUKEE COUNTY INSTITUTIONS POWER PLANT","9250 WATERTOWN PLANK RD",MILWAUKEE,WI,110000419226,MILWAUKEE,43.0462,-88.0278,N,0,,42968,,Y,https://echo.epa.gov/detailed-facility-report?fid=110000419226
"KIMBERLY CLARK CORP","3120 RIVERSIDE AVE",MARINETTE,WI,110000420900,MARINETTE,45.10477,-87.64984,Y,2,,42151,,Y,https://echo.epa.gov/detailed-facility-report?fid=110000420900
"WISCONSIN ELECTRIC POWER COMPANY (DBA WE ENERGIES) - ROTHSCHILD BIOMASS COGENE","210 N GRAND AVE",ROTHSCHILD,WI,110054628729,MARATHON,44.888355,-89.625821,Y,3,,40859,,Y,https://echo.epa.gov/detailed-facility-report?fid=110054628729
"3M CO - WAUSAU DOWNTOWN","144 ROSECRANS ST",WAUSAU,WI,110000421776,MARATHON,44.95018,-89.63766,N,2,,40427,71817,Y,https://echo.epa.gov/detailed-facility-report?fid=110000421776
"GERMANTOWN POWER PLANT","N96 W19298 COUNTY LINE RD",GERMANTOWN,WI,110005266620,WASHINGTON,43.19592,-88.14939,N,0,,39693,,Y,https://echo.epa.gov/detailed-facility-report?fid=110005266620
"MILLERCOORS USA LLC","4000 W STATE ST",MILWAUKEE,WI,110000418174,MILWAUKEE,43.04212,-87.96307,N,2,,39500,,Y,https://echo.epa.gov/detailed-facility-report?fid=110000418174
"MERCURY MARINE - PLANTS 3,4,10,12,15,17,","W6250 PIONEER RD","FOND DU LAC",WI,110000423364,"FOND DU LAC",43.759661,-88.468509,N,1,,39102,90533,Y,https://echo.epa.gov/detailed-facility-report?fid=110000423364
"APPVION OPERATIONS INC","825 E WISCONSIN AVE",APPLETON,WI,110000423140,OUTAGAMIE,44.2729,-88.39311,N,0,,38053,43345,Y,https://echo.epa.gov/detailed-facility-report?fid=110000423140
"SAPUTO CHEESE USA INC","N3545 CTH EE",WAUPUN,WI,110000578679,"FOND DU LAC",43.616667,-88.716667,N,7,,34311,84644,Y,https://echo.epa.gov/detailed-facility-report?fid=110000578679
"QUAD/GRAPHICS INC - LOMIRA","N11896 STH 175",LOMIRA,WI,110000416425,DODGE,43.6264,-88.4446,N,6,,34108,226144,Y,https://echo.epa.gov/detailed-facility-report?fid=110000416425
"LITTLE RAPIDS CORP - SHAWANO PAPER MILL","W7575 POPLAR RD AT HWY MM",SHAWANO,WI,110005518136,SHAWANO,44.77561,-88.62285,N,1,,33721,,Y,https://echo.epa.gov/detailed-facility-report?fid=110005518136
"FRENCH ISLAND PLANT","200 SOUTH BAINBRIDGE STREET","LA CROSSE",WI,110000422524,"LA CROSSE",43.8291,-91.2597,N,12,,33453,138471,Y,https://echo.epa.gov/detailed-facility-report?fid=110000422524
"FLAMBEAU RIVER PAPERS LLC","200 1ST AVE N","PARK FALLS",WI,110000422392,PRICE,45.93657,-90.44776,N,2,,31513,106014,Y,https://echo.epa.gov/detailed-facility-report?fid=110000422392
"W M W I - METRO RECYCLING & DISPOSAL","10712 S 124TH ST",FRANKLIN,WI,110000620766,MILWAUKEE,42.850388,-88.069672,Y,12,,31189,,Y,https://echo.epa.gov/detailed-facility-report?fid=110000620766
"DEER TRACK PARK LANDFILL","N6756 WALDMANN LANE",WATERTOWN,WI,110013863140,JEFFERSON,43.091345,-88.744231,N,0,,31188,,Y,https://echo.epa.gov/detailed-facility-report?fid=110013863140
"DANE COUNTY LANDFILL SITE #2 RODEFELD","7102 EAST BROADWAY STREET",MADISON,WI,110002036546,DANE,43.045,-89.255,N,0,,31139,,Y,https://echo.epa.gov/detailed-facility-report?fid=110002036546
"CELLU TISSUE - CITYFOREST LLC","1215 E WORDEN AVE",LADYSMITH,WI,110000422908,RUSK,45.46343,-91.08877,N,1,,30878,,Y,https://echo.epa.gov/detailed-facility-report?fid=110000422908
"GRASSLAND DAIRY PRODUCTS INC","N 8790 FAIRGROUND AVE",GREENWOOD,WI,110063931606,CLARK,44.737766,-90.578091,N,0,,30114,,Y,https://echo.epa.gov/detailed-facility-report?fid=110063931606
"PHEASANT RUN LANDFILL GAS RECOVERY","19414 60TH STREET",BRISTOL,WI,110028043980,KENOSHA,42.582793,-88.043889,N,2,,29272,,Y,https://echo.epa.gov/detailed-facility-report?fid=110028043980
"WINNEBAGO COUNTY SUNNYVIEW LANDFILL","100 WEST COUNTY RD Y",OSHKOSH,WI,110043811328,WINNEBAGO,44.08601,-88.549349,N,0,,29199,,Y,https://echo.epa.gov/detailed-facility-report?fid=110043811328
"CELLU TISSUE NEENAH","249 NORTH LAKE STREET",MENASHA,WI,110005427323,WINNEBAGO,44.19391,-88.47556,N,0,,28744,,Y,https://echo.epa.gov/detailed-facility-report?fid=110005427323
"SKANA ALUMINUM","2009 MIRRO DR",MANITOWOC,WI,110043419903,MANITOWOC,44.12862,-87.63048,N,0,,28629,12982,Y,https://echo.epa.gov/detailed-facility-report?fid=110043419903
"NEMAK USA INC-GATEWAY","4243 GATEWAY DR",SHEBOYGAN,WI,110000416782,SHEBOYGAN,43.70823,-87.7526,N,0,,28120,435118,Y,https://echo.epa.gov/detailed-facility-report?fid=110000416782
"ERCO WORLDWIDE (USA) INC","101 STATE HIGHWAY 73 SOUTH",NEKOOSA,WI,110000594198,WOOD,44.3381,-89.8871,N,1,,27043,3768,Y,https://echo.epa.gov/detailed-facility-report?fid=110000594198
"DIVERSEY INC  - WAXDALE FACILITY","2512 WILLOW ROAD",STURTEVANT,WI,110002044715,RACINE,42.71464,-87.88606,N,0,,26444,5377,Y,https://echo.epa.gov/detailed-facility-report?fid=110002044715
"CASCADES TISSUE GROUP - WI INC","1200 FOREST ST","EAU CLAIRE",WI,110000422748,"EAU CLAIRE",44.828889,-91.509167,Y,3,,26423,57944,Y,https://echo.epa.gov/detailed-facility-report?fid=110000422748
"WI DOA / UW-MILWAUKEE","3359 N DOWNER AVE",MILWAUKEE,WI,110010885710,MILWAUKEE,43.078689,-87.877823,N,0,,25568,,Y,https://echo.epa.gov/detailed-facility-report?fid=110010885710
"WATER RENEWAL CENTER","2690 W RIVER RD","STEVENS POINT",WI,110000422249,PORTAGE,44.486243,-89.582534,N,3,,24994,7921,Y,https://echo.epa.gov/detailed-facility-report?fid=110000422249
"MADISON GAS & ELECTRIC CO","717 E MAIN ST",MADISON,WI,110000420152,DANE,43.0792,-89.3739,Y,3,,24529,,Y,https://echo.epa.gov/detailed-facility-report?fid=110000420152
"VEOLIA SEVEN MILE CREEK LANDFILL","8001 OLSON DRIVE","EAU CLAIRE",WI,110016925274,"EAU CLAIRE",44.837534,-91.367144,N,1,,23121,,Y,https://echo.epa.gov/detailed-facility-report?fid=110016925274
"VALLEY TRAIL RECYCLING &AMP; DISPOSAL FACILITY","RTE 2 - SOUTH WILLARD ROAD",BERLIN,WI,110043804121,"GREEN LAKE",43.95997,-88.906399,N,0,,22537,,Y,https://echo.epa.gov/detailed-facility-report?fid=110043804121
"W M W I - TIMBERLINE TRAIL RDF","N4581 HUTCHINSON ROAD",WEYERHAEUSER,WI,110015632680,RUSK,45.45344,-91.362534,N,0,,22496,,Y,https://echo.epa.gov/detailed-facility-report?fid=110015632680
"VEOLIA ES CRANBERRY CREEK LANDFILL","2510 ENGEL RD","WISCONSIN RAPIDS",WI,110043581317,WOOD,44.4093,-89.854855,N,0,,22296,,Y,https://echo.epa.gov/detailed-facility-report?fid=110043581317
"LAKE AREA DISPOSAL LANDFILL","W5987 COUNTY HIGHWAY D",SARONA,WI,110043787202,WASHBURN,45.69543,-91.83957,N,1,,20713,,Y,https://echo.epa.gov/detailed-facility-report?fid=110043787202
"XCEL ENERGY-WHEATON GENERATING STATION","3008 80TH ST","EAU CLAIRE",WI,110007776692,CHIPPEWA,44.88678,-91.50942,N,0,,20565,,Y,https://echo.epa.gov/detailed-facility-report?fid=110007776692
"RIDGEVIEW LANDFILL","6207 HEMPTON LAKE RD",WHITELAW,WI,110010410581,MANITOWOC,44.1744,-87.8294,N,0,,19825,,Y,https://echo.epa.gov/detailed-facility-report?fid=110010410581
"KESTREL HAWK LANDFILL","1989 OAKES RD",RACINE,WI,110000620748,RACINE,42.7075,-87.869737,N,0,,19085,,Y,https://echo.epa.gov/detailed-facility-report?fid=110000620748
"XCEL ENERGY BAY FRONT GENERATING STATION","122 N 14TH AVENUE WEST",ASHLAND,WI,110000422846,ASHLAND,46.5873,-90.9014,N,2,,18612,241041,Y,https://echo.epa.gov/detailed-facility-report?fid=110000422846
"WPL - ROCK RIVER GENERATING STATION/ALLIANT","827 WBR TOWNLINE RD",BELOIT,WI,110000419538,ROCK,42.58299,-89.02593,N,0,,15969,,Y,https://echo.epa.gov/detailed-facility-report?fid=110000419538
"MALTEUROP NORTH AMERICA INC","3830 W GRANT ST",MILWAUKEE,WI,110001922689,MILWAUKEE,43.00472,-87.96155,Y,12,,13384,,Y,https://echo.epa.gov/detailed-facility-report?fid=110001922689
"COVANCE LABORATORIES INC","3301 KINSMAN BLVD",MADISON,WI,110007331422,DANE,43.12577,-89.33263,N,2,,13037,,Y,https://echo.epa.gov/detailed-facility-report?fid=110007331422
"REXNORD INDUSTRIES LLC GEAR GROUP","3001 W CANAL ST",MILWAUKEE,WI,110000418502,MILWAUKEE,43.0293,-87.9518,N,1,,9006,17320,Y,https://echo.epa.gov/detailed-facility-report?fid=110000418502
"ELK MOUND GENERATING STATION","4101 50TH ST","ELK MOUND",WI,110040928048,DUNN,44.90299,-91.56979,N,0,,5495,,Y,https://echo.epa.gov/detailed-facility-report?fid=110040928048
"OCONTO FALLS TISSUE INCORPORATED","106 E. CENTRAL AVE.","OCONTO FALLS",WI,110000421151,OCONTO,44.873593,-88.14389,N,3,,3238,1592,Y,https://echo.epa.gov/detailed-facility-report?fid=110000421151
"MONROE ELEMENTARY","2502 S 14TH ST",MANITOWOC,WI,110005516334,MANITOWOC,44.06807,-87.66622,N,0,,,,Y,https://echo.epa.gov/detailed-facility-report?fid=110005516334
"WISDOT BRIDGE PAIR B-05-0219 & B-05-0220","I43 OVER DANZ AVE","GREEN BAY",WI,110070123736,BROWN,44.501172,-87.972419,N,0,,,,Y,https://echo.epa.gov/detailed-facility-report?fid=110070123736
"WI ARMY NATL GUARD BLDG/GROUNDS AREA 3 HQ","S 10TH AVE BLDG 90","FORT MCCOY",WI,110064821493,MONROE,43.933712,-90.799239,N,0,,,,Y,https://echo.epa.gov/detailed-facility-report?fid=110064821493
"MASTERCRAFT INDUSTRIES","207 W NEWTON","RICE LAKE",WI,110005488347,BARRON,45.5025,-91.73913,N,0,,,,Y,https://echo.epa.gov/detailed-facility-report?fid=110005488347
"ARMANDOS BODY SHOP","1718 63RD ST",KENOSHA,WI,110005467146,KENOSHA,42.577704,-87.83036,N,0,,,,Y,https://echo.epa.gov/detailed-facility-report?fid=110005467146
"IMPERIAL LITHOGRAPHING","914 E HAMILTON ST",MILWAUKEE,WI,110001927416,MILWAUKEE,43.05444,-87.90047,N,0,,,,Y,https://echo.epa.gov/detailed-facility-report?fid=110001927416
LUCKYS,,,WI,110049593560,KENOSHA,42.579703,-87.424898,N,7,,,,Y,https://echo.epa.gov/detailed-facility-report?fid=110049593560
"CAMP WAKONDA CEDAR LODGE",,,WI,110050650461,MARQUETTE,43.826053,-89.409095,N,0,,,,Y,https://echo.epa.gov/detailed-facility-report?fid=110050650461
"SISTER BAY WATERWORKS","102 AUTUMN CT","SISTER BAY",WI,110013076189,DOOR,45.18893,-87.10706,N,0,,,,Y,https://echo.epa.gov/detailed-facility-report?fid=110013076189
"PREVEA LENA CLINIC","200 S ROSERA ST",LENA,WI,110070200671,OCONTO,44.94999,-88.04691,N,0,,,,Y,https://echo.epa.gov/detailed-facility-report?fid=110070200671
"KESTELL FURNITURE CO INC","1311 MILWAUKEE DRIVE","NEW HOLSTEIN",WI,110005427172,CALUMET,43.94665,-88.07914,N,0,,,,Y,https://echo.epa.gov/detailed-facility-report?fid=110005427172
"VEGAS GENTLEMANS CLUB",,,WI,110050620690,WALWORTH,42.66811,-88.541731,N,12,,,,Y,https://echo.epa.gov/detailed-facility-report?fid=110050620690
CABELAS,"1499 LOMBARDI AVE",ASHWAUBENON,WI,110055417632,BROWN,44.494963,-88.069809,N,0,,,,Y,https://echo.epa.gov/detailed-facility-report?fid=110055417632
"BUTCHS HIGH LITE AUTO BODY","301 WOODLAND DR","FORT ATKINSON",WI,110005478045,JEFFERSON,42.94308,-88.83172,N,0,,,,Y,https://echo.epa.gov/detailed-facility-report?fid=110005478045
"PARDUNS JACK PINE CAMPGROUND",,,WI,WI8070263,Burnett,45.865255,-92.367978,N,0,,,,Y,https://echo.epa.gov/detailed-facility-report?fid=WI8070263
"FALLS MFG INC","N60 W15723 KOHLER LN","MENOMONEE FALLS",WI,110009515523,WAUKESHA,43.125858,-88.104299,N,0,,,,Y,https://echo.epa.gov/detailed-facility-report?fid=110009515523
"GALLOWAY  COMMUNITY CENTER",,,WI,110050701040,MARATHON,44.898036,-89.757823,N,0,,,,Y,https://echo.epa.gov/detailed-facility-report?fid=110050701040
"ONE HOUR MARTINIZING","233 W LAYTON AVE",MILWAUKEE,WI,110005448596,MILWAUKEE,42.959116,-87.912738,N,0,,,,Y,https://echo.epa.gov/detailed-facility-report?fid=110005448596
"BARRE TN","TN SHOP","WEST SALEM",WI,110008241250,"LA CROSSE",43.90401,-91.101498,N,0,,,,Y,https://echo.epa.gov/detailed-facility-report?fid=110008241250
"MINIATURE PRECISION COMPONENTS","100 WISCONSIN ST.",WALWORTH,WI,110005411660,WALWORTH,42.54172,-88.60275,N,0,,,,Y,https://echo.epa.gov/detailed-facility-report?fid=110005411660
"CALVARY COVENANT CHURCH",,,WI,110052039511,BURNETT,45.865255,-92.367978,N,0,,,,Y,https://echo.epa.gov/detailed-facility-report?fid=110052039511
"SALEMVILLE CHEESE COOP OF CAMBRIA","W4481 HIGHWAY GG, CAMBRIA","MANCHESTER, TOWN OF",WI,110070023203,"GREEN LAKE",43.64642,-89.100411,N,0,,,,Y,https://echo.epa.gov/detailed-facility-report?fid=110070023203
"COUNTRY ESTATES SANITARY DISTRICT TOWN OF LYONS #1","6979 PRAIRIE LANE",BURLINGTON,WI,110013078114,WALWORTH,42.652618,-88.401866,N,0,,,,Y,https://echo.epa.gov/detailed-facility-report?fid=110013078114
"WI AIR NATL GUARD HARDWOOD GUNNERY R","RT 1 BOX 387",NECEDAH,WI,110006142842,JUNEAU,44.0502,-90.0706,N,0,,,,Y,https://echo.epa.gov/detailed-facility-report?fid=110006142842
"CAPTAINS COVE",,,WI,110049916622,WINNEBAGO,44.085707,-88.668149,N,0,,,,Y,https://echo.epa.gov/detailed-facility-report?fid=110049916622
"MAXS RESORT",,,WI,110049895878,CHIPPEWA,45.069092,-91.283505,N,0,,,,Y,https://echo.epa.gov/detailed-facility-report?fid=110049895878
"C MART",,,WI,110050834095,BROWN,44.473961,-87.995926,N,0,,,,Y,https://echo.epa.gov/detailed-facility-report?fid=110050834095
"PEPIN SPORTSMANS CLUB",,,WI,110052030574,PEPIN,44.627436,-91.83489,N,0,,,,Y,https://echo.epa.gov/detailed-facility-report?fid=110052030574
"DICKS BODY SHOP","W154 N11412 FOND DU LAC AVE",GERMANTOWN,WI,110005454720,WASHINGTON,43.212528,-88.083746,N,0,,,,Y,https://echo.epa.gov/detailed-facility-report?fid=110005454720
"KANSASVILLE RACEWAY BP",,,WI,110050783513,RACINE,42.754075,-87.414676,N,0,,,,Y,https://echo.epa.gov/detailed-facility-report?fid=110050783513
"D & L PUMP & PANTRY","6575 75TH ST",KENOSHA,WI,110005481488,KENOSHA,42.566715,-87.886985,N,0,,,,Y,https://echo.epa.gov/detailed-facility-report?fid=110005481488
"PIOTROWSKIS TAVERN",,,WI,110052005209,TAYLOR,45.211656,-90.504853,N,0,,,,Y,https://echo.epa.gov/detailed-facility-report?fid=110052005209
"CHECKER LOGISTICS INC","1715 DIXIE RD",NEENAH,WI,110005467627,WINNEBAGO,44.13957,-88.48812,N,0,,,,Y,https://echo.epa.gov/detailed-facility-report?fid=110005467627
"MCKAY NURSERY - CORPORATE HDQTRS",,,WI,110049652522,JEFFERSON,43.013807,-88.773986,N,0,,,,Y,https://echo.epa.gov/detailed-facility-report?fid=110049652522
"WOODSIDE COTTAGES 2",,,WI,WI8040772,Bayfield,46.634199,-91.177282,N,0,,,,Y,https://echo.epa.gov/detailed-facility-report?fid=WI8040772
"MIDWAY CHEV PONTIAC","CTH X",OWEN,WI,110008234856,CLARK,44.900667,-90.545878,N,0,,,,Y,https://echo.epa.gov/detailed-facility-report?fid=110008234856
"CEDAR FALLS TRUCK EQUIPMENT","RR 2 CTH BB",MENOMONIE,WI,110008235702,DUNN,44.850544,-91.903947,N,0,,,,Y,https://echo.epa.gov/detailed-facility-report?fid=110008235702
"FISHER BARTON BLADES","300 AIR PARK DR",WATERTOWN,WI,110060258894,JEFFERSON,43.16593,-88.71815,N,,,,226618,Y,https://echo.epa.gov/detailed-facility-report?fid=110060258894
"ST GERMAIN GOLF CLUB ON COURSE",,,WI,110052032652,VILAS,46.049848,-89.501254,N,0,,,,Y,https://echo.epa.gov/detailed-facility-report?fid=110052032652
"CLARKS MILLS SANITARY DISTRICT","1376 PIESCHEL LANE",CATO,WI,110010885943,MANITOWOC,44.094795,-87.847596,N,0,,,,Y,https://echo.epa.gov/detailed-facility-report?fid=110010885943
"ST EDWARD SCH & CH",,,WI,110050667863,OUTAGAMIE,44.418226,-88.464988,N,1,,,,Y,https://echo.epa.gov/detailed-facility-report?fid=110050667863
"CDM TOOLS & MANUFACTURING CO LLC","749 N WACKER DR",HARTFORD,WI,110005407791,WASHINGTON,43.32587,-88.38985,N,0,,,294,Y,https://echo.epa.gov/detailed-facility-report?fid=110005407791
"WISCONSIN BELL GARAGE","820 WITZEL AVE",OSHKOSH,WI,110005502349,WINNEBAGO,44.01782,-88.55898,N,0,,,,Y,https://echo.epa.gov/detailed-facility-report?fid=110005502349
"CROSS PLAINS WASTEWATER TREATMENT FACILITY","1000 MAIN STREET","CROSS PLAINS",WI,110010889636,DANE,43.11482,-89.66175,N,0,,,,Y,https://echo.epa.gov/detailed-facility-report?fid=110010889636
"FISKARS BRANDS INC","305 S 84TH AVE",WAUSAU,WI,110043816635,MARATHON,44.9605,-89.74236,N,0,,,,Y,https://echo.epa.gov/detailed-facility-report?fid=110043816635
"RUSHES CONDOS UNIT  802",,,WI,110050773604,DOOR,45.067808,-87.087936,N,0,,,,Y,https://echo.epa.gov/detailed-facility-report?fid=110050773604
"MCCOY PARK",,,WI,110050849891,WAUKESHA,43.019308,-88.306707,N,6,,,,Y,https://echo.epa.gov/detailed-facility-report?fid=110050849891
"RYAN INCORPORATED CENTRAL","108 SCOT DR",CLINTON,WI,110005529641,ROCK,42.54996,-88.87279,N,0,,,,Y,https://echo.epa.gov/detailed-facility-report?fid=110005529641
"SPECIALTY COATING SYSTEMS INC","100 DEPOSITION DR","CLEAR LAKE",WI,110000857797,POLK,45.24984,-92.28157,N,0,,,,Y,https://echo.epa.gov/detailed-facility-report?fid=110000857797
"TRACTOR SUPPLY CO #2087","1833 EGG HARBOR RD UNIT A","STURGEON BAY",WI,110070125792,DOOR,44.85287,-87.35099,N,0,,,,Y,https://echo.epa.gov/detailed-facility-report?fid=110070125792
"GOOD SAMARITAN MINISTRIES",,,WI,110049858338,BARRON,45.437192,-91.852892,N,0,,,,Y,https://echo.epa.gov/detailed-facility-report?fid=110049858338
"REEDSBURG WATERWORKS","501 UTILITY CT",REEDSBURG,WI,110013086338,SAUK,43.5283,-89.9759,N,0,,,,Y,https://echo.epa.gov/detailed-facility-report?fid=110013086338
"WOLLER PRECISION MACHINE LLC","N4079 N 13TH ST",POUND,WI,WIR000172205,MARINETTE,45.106057,-87.99345,N,0,,,,Y,https://echo.epa.gov/detailed-facility-report?fid=WIR000172205
"MEMORY LANE FURNITURE","2401 S 16TH ST","LA CROSSE",WI,110070634934,"LA CROSSE",43.78798,-91.23207,N,0,,,,Y,https://echo.epa.gov/detailed-facility-report?fid=110070634934
"MURPH KO FARMS INC","N4017 HWY K","EDEN, TOWN OF",WI,110041249725,"FOND DU LAC",43.683839,-88.398639,N,0,,,,Y,https://echo.epa.gov/detailed-facility-report?fid=110041249725
"BIG LUG TRACTORS","1335 BEAUPREY RD",SHAWANO,WI,110046365759,SHAWANO,44.770772,-88.571831,N,0,,,,Y,https://echo.epa.gov/detailed-facility-report?fid=110046365759
"FOXX DEN",,,WI,110052007626,TAYLOR,45.211656,-90.504853,N,0,,,,Y,https://echo.epa.gov/detailed-facility-report?fid=110052007626
"CHRISTMAS MT CLUBHOUSE",,,WI,110053043130,SAUK,43.427998,-89.943329,N,0,,,,Y,https://echo.epa.gov/detailed-facility-report?fid=110053043130
"TRIANGLE MOTEL",,,WI,110050708418,ONEIDA,45.713791,-89.536693,N,0,,,,Y,https://echo.epa.gov/detailed-facility-report?fid=110050708418
"RED OAK CAMPGROUND",,,WI,110049733730,SAUK,43.427998,-89.943329,N,0,,,,Y,https://echo.epa.gov/detailed-facility-report?fid=110049733730
"EZ LIVIN CONDO ASSN UPPER",,,WI,110050587441,POLK,45.46803,-92.453154,N,0,,,,Y,https://echo.epa.gov/detailed-facility-report?fid=110050587441
"DESTEFANIS GROUP LLC",,,WI,110050805401,WAUKESHA,43.019308,-88.306707,N,0,,,,Y,https://echo.epa.gov/detailed-facility-report?fid=110050805401
"FIBERESIN INDUSTRIES INC","W2620 OAK ST",ASHIPPUN,WI,110070634984,DODGE,43.21172,-88.51626,N,0,,,,Y,https://echo.epa.gov/detailed-facility-report?fid=110070634984
"PUKALL LUMBER COMPANY INC","10894 HIGHWAY 70 EAST, ARBOR VITAE, WISCONSIN","ARBOR VITAE, TOWN OF",WI,110070011257,VILAS,45.920783,-89.694106,N,0,,,,Y,https://echo.epa.gov/detailed-facility-report?fid=110070011257
"DO IT BEST HARDWARE",,,WI,110050792558,OZAUKEE,43.360715,-87.496553,N,0,,,,Y,https://echo.epa.gov/detailed-facility-report?fid=110050792558
"FLEET GUARD INCORPORATED","915 RED IRON ROAD","BLACK RIVER FALLS",WI,110002034334,JACKSON,44.30089,-90.80697,N,0,,,101279,Y,https://echo.epa.gov/detailed-facility-report?fid=110002034334
"WILD GOOSE STATION",,,WI,110049588656,DODGE,43.422706,-88.704379,N,0,,,,Y,https://echo.epa.gov/detailed-facility-report?fid=110049588656
"NORTH BEND SANITARY DISTRICT #1","N576 NORTH BEND DRIVE, MELROSE, WI",MELROSE,WI,110016875595,JACKSON,44.08926,-91.119,N,0,,,,Y,https://echo.epa.gov/detailed-facility-report?fid=110016875595
"TOMORROW RIVER VILLA HSNG AUTH PORTAGE","125 WAKE ISLAND",AMHERST,WI,110005474888,PORTAGE,44.44775,-89.28769,N,0,,,,Y,https://echo.epa.gov/detailed-facility-report?fid=110005474888
"SILLIKER LABS OF WISCONSIN","3688 KINSMAN BLVD",MADISON,WI,110005531371,DANE,43.12576,-89.3263,N,0,,,,Y,https://echo.epa.gov/detailed-facility-report?fid=110005531371
"HAGERS HILLY HAVEN CAMPGROUND",,,WI,110052434335,SHEBOYGAN,43.746002,-87.730546,N,0,,,,Y,https://echo.epa.gov/detailed-facility-report?fid=110052434335
"ACE CHEMICAL PRODUCTS INC","8415 N 87TH ST",MILWAUKEE,WI,110000419093,MILWAUKEE,43.17069,-88.01827,N,,,,25,Y,https://echo.epa.gov/detailed-facility-report?fid=110000419093
"THOMPSONS AMOCO","211 MAIN ST",OCONTO,WI,110012179212,OCONTO,44.89325,-87.88392,N,0,,,,Y,https://echo.epa.gov/detailed-facility-report?fid=110012179212
"B & B METALS OFFICE",,,WI,WI4360119,Manitowoc,44.105108,-87.313828,N,0,,,,Y,https://echo.epa.gov/detailed-facility-report?fid=WI4360119
"SPRING GREEN MOTEL",,,WI,110049596950,SAUK,43.427998,-89.943329,N,0,,,,Y,https://echo.epa.gov/detailed-facility-report?fid=110049596950
"WOODLINE MANUFACTURING INC","257B MAIN ST CONNORS POINT",SUPERIOR,WI,110070637138,DOUGLAS,46.699124,-92.105572,N,0,,,,Y,https://echo.epa.gov/detailed-facility-report?fid=110070637138
"MIDWEST CLASSICS","3711 W MASON ST BLDG 1",HOBART,WI,110055066618,BROWN,44.51113,-88.15623,N,0,,,,Y,https://echo.epa.gov/detailed-facility-report?fid=110055066618
"ROBS PERFORMANCE MOTOSPORTS",,,WI,110049652595,JEFFERSON,43.013807,-88.773986,N,0,,,,Y,https://echo.epa.gov/detailed-facility-report?fid=110049652595
"CEDAR LAKE ARENA",,,WI,110050789492,"ST. CROIX",45.028959,-92.447284,N,0,,,,Y,https://echo.epa.gov/detailed-facility-report?fid=110050789492
"SWANSONS MOTEL & CAMPGROUND CMPG 2 BATH HOUSE WELL",,,WI,110052047977,DOUGLAS,46.463316,-91.89258,N,0,,,,Y,https://echo.epa.gov/detailed-facility-report?fid=110052047977
"SALEM EV LUTHERAN CH",,,WI,110050829341,DOOR,45.067808,-87.087936,N,0,,,,Y,https://echo.epa.gov/detailed-facility-report?fid=110050829341
"DRY CLEANERS ETC","102 COOK ST","NEW LONDON",WI,110005457665,WAUPACA,44.38915,-88.73934,N,0,,,,Y,https://echo.epa.gov/detailed-facility-report?fid=110005457665
"FRIENDSHIP WATERWORKS","507 W LAKE ST",FRIENDSHIP,WI,110012846082,ADAMS,43.97409,-89.82315,N,2,,,,Y,https://echo.epa.gov/detailed-facility-report?fid=110012846082
"DEANS AUTO REPAIR","356 S BROADWAY",STANLEY,WI,110005464103,CHIPPEWA,44.95529,-90.93764,N,0,,,,Y,https://echo.epa.gov/detailed-facility-report?fid=110005464103
"RUTLIN CRANBERRY COMPANY, INC.","1111 COPPER ROAD",WARRENS,WI,110060346718,MONROE,44.127425,-90.520971,N,,1,,,Y,https://echo.epa.gov/detailed-facility-report?fid=110060346718
"KOKES AUTOBODY INC","810 E CENTRAL ST","CHIPPEWA FALLS",WI,110005514309,CHIPPEWA,44.941519,-91.383861,N,0,,,,Y,https://echo.epa.gov/detailed-facility-report?fid=110005514309
"SPITFIRE PUB & GRILL",,,WI,110050878430,WAUKESHA,43.019308,-88.306707,N,0,,,,Y,https://echo.epa.gov/detailed-facility-report?fid=110050878430
"TITAN SPINE","8347 N STEVEN RD",MILWAUKEE,WI,110064651023,MILWAUKEE,43.169363,-88.000388,N,0,,,,Y,https://echo.epa.gov/detailed-facility-report?fid=110064651023
"WHITNALL PARK LUTHERAN CHURCH",,,WI,110050848927,MILWAUKEE,43.017655,-87.481575,N,0,,,,Y,https://echo.epa.gov/detailed-facility-report?fid=110050848927
"CHURNY CO INC","705 W FULTON ST, PO BOX 569",WAUPACA,WI,110005536982,WAUPACA,44.35795,-89.09842,N,0,,,,Y,https://echo.epa.gov/detailed-facility-report?fid=110005536982
"JON DE FARM","2061 30TH AVENUE",BALDWIN,WI,110031272708,"ST. CROIX",44.90574,-92.38267,N,6,,,,Y,https://echo.epa.gov/detailed-facility-report?fid=110031272708
"WISCONSIN BELL INC PL0306","315 ALGOMA BLVD",OSHKOSH,WI,110005438106,WINNEBAGO,44.01973,-88.54134,N,0,,,,Y,https://echo.epa.gov/detailed-facility-report?fid=110005438106
"KINNEY ENTERPRISES","N138 HOPKINS RD",SHELDON,WI,110070639916,RUSK,45.29184,-91.03801,N,0,,,,Y,https://echo.epa.gov/detailed-facility-report?fid=110070639916
"SPIDER LAKE RESORT AND CAMPGROUND",,,WI,110050579469,WASHBURN,45.892463,-91.796423,N,0,,,,Y,https://echo.epa.gov/detailed-facility-report?fid=110050579469
"BLACKWOLF RUN GOLF COURSE REST STN",,,WI,110049885371,SHEBOYGAN,43.746002,-87.730546,N,0,,,,Y,https://echo.epa.gov/detailed-facility-report?fid=110049885371
"WASH CTY HISTORICAL MUSEUM","340 S 5TH ST","WEST BEND",WI,110005482432,WASHINGTON,43.41975,-88.18228,N,0,,,,Y,https://echo.epa.gov/detailed-facility-report?fid=110005482432
"STEVES AUTO BODY","115 DEPOT ST",SOMERSET,WI,110005455159,"ST. CROIX",45.12222,-92.67907,N,0,,,,Y,https://echo.epa.gov/detailed-facility-report?fid=110005455159
"LAKETOWN LUTHERAN CHURCH",,,WI,110052030805,POLK,45.46803,-92.453154,N,0,,,,Y,https://echo.epa.gov/detailed-facility-report?fid=110052030805
"MIDDLETON HIGH SCHOOL","7400 NORTH AVE",MIDDLETON,WI,110005461758,DANE,43.09918,-89.50848,N,0,,,,Y,https://echo.epa.gov/detailed-facility-report?fid=110005461758
"WESTBY WATERWORKS","200 NORTH MAIN ST",WESTBY,WI,110013061998,VERNON,43.65444,-90.85668,N,0,,,,Y,https://echo.epa.gov/detailed-facility-report?fid=110013061998
"WAUSHARA CO PK PONY CREEK",,,WI,110052046727,WAUSHARA,44.112825,-89.239752,N,0,,,,Y,https://echo.epa.gov/detailed-facility-report?fid=110052046727
"NORTH VIEW CAMPGROUND",,,WI,110052022413,DOUGLAS,46.463316,-91.89258,N,0,,,,Y,https://echo.epa.gov/detailed-facility-report?fid=110052022413
"CESA 5","626 E SLIFER ST",PORTAGE,WI,110005413757,COLUMBIA,43.55852,-89.45383,N,0,,,,Y,https://echo.epa.gov/detailed-facility-report?fid=110005413757
"WI DNR SER HEADQUARTERS","2300 N MARTIN LUTHER KING DR",MILWAUKEE,WI,110005453464,MILWAUKEE,43.060437,-87.913911,N,0,,,,Y,https://echo.epa.gov/detailed-facility-report?fid=110005453464
"DAY BY DAY DISCOVERIES CHILD CARE",,,WI,110050843423,BROWN,44.473961,-87.995926,N,0,,,,Y,https://echo.epa.gov/detailed-facility-report?fid=110050843423
"CHRONOTYPE PUBLISHING CO","28 S MAIN ST","RICE LAKE",WI,110005426994,BARRON,45.50045,-91.7334,N,0,,,,Y,https://echo.epa.gov/detailed-facility-report?fid=110005426994
"SCJ WAREHOUSING OPERATION","9800 72ND AVE","PLEASANT PRAIRIE",WI,110012175537,KENOSHA,42.53092,-87.8942,N,1,,,,Y,https://echo.epa.gov/detailed-facility-report?fid=110012175537
"QUINNEY QUENCHER BAR",,,WI,110050884192,CALUMET,44.07841,-88.212132,N,0,,,,Y,https://echo.epa.gov/detailed-facility-report?fid=110050884192
"DEL MONTE FOODS PLT 107","1400 PLOVER RD",PLOVER,WI,110009517433,PORTAGE,44.451367,-89.585761,N,0,,,,Y,https://echo.epa.gov/detailed-facility-report?fid=110009517433
"DOLLAR GENERAL STORE #6481","2241 MAIN ST STE B","GREEN BAY",WI,110070125104,BROWN,44.48405,-87.97016,N,0,,,,Y,https://echo.epa.gov/detailed-facility-report?fid=110070125104
"HOME DEPOT USA HD4924","4025 STH 28",KOHLER,WI,110070640492,SHEBOYGAN,43.745206,-87.786932,N,0,,,,Y,https://echo.epa.gov/detailed-facility-report?fid=110070640492
"EGAN BROS PARTNERSHIP","N5736 COUNTY HWY T, NEW LONDON, WI 54961","LEBANON, TOWN OF",WI,110064581322,WAUPACA,44.447681,-88.79524,N,0,,,,Y,https://echo.epa.gov/detailed-facility-report?fid=110064581322
"B S A BRYANT SCOUT RESERVATION - FELLOWSHIP HALL",,,WI,110051986231,JUNEAU,43.932836,-90.113984,N,0,,,,Y,https://echo.epa.gov/detailed-facility-report?fid=110051986231
"BIRMINGHAMS BAR",,,WI,110050841657,DOOR,45.067808,-87.087936,N,2,,,,Y,https://echo.epa.gov/detailed-facility-report?fid=110050841657
"TENNYSON WATERWORKS"," ",POTOSI,WI,110013087033,GRANT,42.6925,-90.6974,N,2,,,,Y,https://echo.epa.gov/detailed-facility-report?fid=110013087033
"SHERWIN WILLIAMS CO","818 PALACE ST","LA CROSSE",WI,110068607421,"LA CROSSE COUNTY",43.85539,-91.24441,N,0,,,,Y,https://echo.epa.gov/detailed-facility-report?fid=110068607421
"MEQUON AUTO BODY SHOP","10809 N INDUSTRIAL DR 62W",MEQUON,WI,110005471774,OZAUKEE,43.21434,-87.98737,N,0,,,,Y,https://echo.epa.gov/detailed-facility-report?fid=110005471774
"FOX VALLEY LUTHERAN SCHOOL","2626 ONEIDA ST",APPLETON,WI,110005443154,OUTAGAMIE,44.28651,-88.40584,N,0,,,,Y,https://echo.epa.gov/detailed-facility-report?fid=110005443154
"SOURCE ENERGY SERVICES",,,WI,WI6620740,Trempealeau,44.30305,-91.358867,N,0,,,,Y,https://echo.epa.gov/detailed-facility-report?fid=WI6620740
"RAWHIDE BOYS RANCH CENTRAL SERVICES",,,WI,110050653887,WAUPACA,44.478004,-88.967006,N,0,,,,Y,https://echo.epa.gov/detailed-facility-report?fid=110050653887
"MS GLOBAL FOND DU LAC",,,WI,110050799409,"FOND DU LAC",43.754722,-88.493284,N,0,,,,Y,https://echo.epa.gov/detailed-facility-report?fid=110050799409
"LUNCH BOX THE",,,WI,110050863366,"FOND DU LAC",43.754722,-88.493284,N,6,,,,Y,https://echo.epa.gov/detailed-facility-report?fid=110050863366
"ACA MGMT SERV AMOCO","10477 120TH AVE","PLEASANT PRAIRIE",WI,110005490110,KENOSHA,42.5231,-87.94727,N,0,,,,Y,https://echo.epa.gov/detailed-facility-report?fid=110005490110
"LILY PAD",,,WI,110050655368,LANGLADE,45.259204,-89.06819,N,0,,,,Y,https://echo.epa.gov/detailed-facility-report?fid=110050655368
"PONDEROSA PINES",,,WI,110051989960,ADAMS,43.973763,-89.767223,N,0,,,,Y,https://echo.epa.gov/detailed-facility-report?fid=110051989960
"TOWN OF SHELBY","2800 WARD AVE","LA CROSSE",WI,110070640979,"LA CROSSE",43.78331,-91.21419,N,0,,,,Y,https://echo.epa.gov/detailed-facility-report?fid=110070640979
"RECLAIMED RUSTIC WOODWORKS INC","N11067 CTH F",PHILLIPS,WI,110066826377,PRICE,45.69464,-90.405431,N,0,,,,Y,https://echo.epa.gov/detailed-facility-report?fid=110066826377
"VCA ASSOCIATES IN PET CARE","918 W SUNSET DR",WAUKESHA,WI,110070395174,WAUKESHA,42.988254,-88.247566,N,0,,,,Y,https://echo.epa.gov/detailed-facility-report?fid=110070395174
"DICKTEN & MASCH LLC.","N44 W33341 WATERTOWN PLANK RD",NASHOTAH,WI,110009514597,WAUKESHA,43.101048,-88.412389,N,0,,,2672,Y,https://echo.epa.gov/detailed-facility-report?fid=110009514597
"NINTH AVENUE AUTO BODY","3200 9TH AVE","SOUTH MILWAUKEE",WI,110064287819,MILWAUKEE,42.8994,-87.85933,N,0,,,,Y,https://echo.epa.gov/detailed-facility-report?fid=110064287819
"WINCHESTER HILLS GOLF COURSE",,,WI,110049857543,WINNEBAGO,44.085707,-88.668149,N,12,,,,Y,https://echo.epa.gov/detailed-facility-report?fid=110049857543
"EXPRESS CONVENIENCE CENTER #91","2512 STEFFENS CT","GREEN BAY",WI,110005541431,BROWN,44.469,-87.95766,N,0,,,,Y,https://echo.epa.gov/detailed-facility-report?fid=110005541431
"WE ENERGIES GAS NORTH SERVICE CENTER","1800 W CUSTER AVE",MILWAUKEE,WI,110005453703,MILWAUKEE,43.11522,-87.932715,N,0,,,,Y,https://echo.epa.gov/detailed-facility-report?fid=110005453703
"MERRY MACS CAMP N - STORE",,,WI,110049682580,SAUK,43.427998,-89.943329,N,0,,,,Y,https://echo.epa.gov/detailed-facility-report?fid=110049682580
"PINE POINT CAMPGROUND 2",,,WI,110063331826,SAWYER,45.864913,-91.14713,N,0,,,,Y,https://echo.epa.gov/detailed-facility-report?fid=110063331826
"NORTH SHORE ENVIRONMENTAL CONSTRUCTION INC","N117 W18493 FULTON DR",GERMANTOWN,WI,110017612270,WASHINGTON,43.2308,-88.138867,N,0,,,,Y,https://echo.epa.gov/detailed-facility-report?fid=110017612270
"MICHELS MATERIALS K-751",PORTABLE,BROWNSVILLE,WI,110068619739,"DODGE COUNTY",43.5993,-88.515797,N,0,,,,Y,https://echo.epa.gov/detailed-facility-report?fid=110068619739
"TRIPLE A SERV","2450 CARLETON AVE",MENASHA,WI,110005493572,WINNEBAGO,44.239926,-88.425483,N,0,,,,Y,https://echo.epa.gov/detailed-facility-report?fid=110005493572
"HANNA CYLINDERS","8901 102ND STREET","PLEASANT PRAIRIE",WI,110059295276,KENOSHA,42.52539,-87.91388,N,0,,,,Y,https://echo.epa.gov/detailed-facility-report?fid=110059295276
"JUNCTION CITY WASTEWATER TREATMENT FACILITY","800 CENTER AVE","JUNCTION CITY",WI,110010887585,PORTAGE,44.58796,-89.76295,N,2,,,,Y,https://echo.epa.gov/detailed-facility-report?fid=110010887585
"PEWAUKEE CITY WATER AND SEWER UTILITY","W240 N3065 PEWAUKEE RD",PEWAUKEE,WI,110009520410,WAUKESHA,43.096332,-88.243716,N,12,,,,Y,https://echo.epa.gov/detailed-facility-report?fid=110009520410
"RCS DECOY INN",,,WI,110050569513,BAYFIELD,46.634199,-91.177282,N,12,,,,Y,https://echo.epa.gov/detailed-facility-report?fid=110050569513
"KUHN NORTH AMERICA INC","1501 W 7TH AVE",BRODHEAD,WI,110000419556,GREEN,42.61525,-89.3842,N,1,,,24121,Y,https://echo.epa.gov/detailed-facility-report?fid=110000419556
"SQUIRES GROVE"," ","ELM GROVE",WI,110013079578,WAUKESHA,43.0475,-88.0856,N,0,,,,Y,https://echo.epa.gov/detailed-facility-report?fid=110013079578
"MUZA METAL PRODUCTS, CORP","606 E MURDOCK AVE",OSHKOSH,WI,110000855539,WINNEBAGO,44.0395,-88.53064,N,0,,,166834,Y,https://echo.epa.gov/detailed-facility-report?fid=110000855539
"VCA VETERINARY EMERGENCY SERVICE & VETERINARY SPECIALTY CENT","4902 E BROADWAY",MADISON,WI,110070675808,DANE,43.04802,-89.29812,N,0,,,,Y,https://echo.epa.gov/detailed-facility-report?fid=110070675808
"DAIRY QUEEN",,,WI,110051994106,WAUSHARA,44.112825,-89.239752,N,0,,,,Y,https://echo.epa.gov/detailed-facility-report?fid=110051994106
"COSMOPROF 86007","718 N CASALOMA DR",APPLETON,WI,110070384974,OUTAGAMIE,44.2697,-88.476261,N,0,,,,Y,https://echo.epa.gov/detailed-facility-report?fid=110070384974
"GRANTSBURG VIL","117 W OLSON DR",GRANTSBURG,WI,110005466931,BURNETT,45.779596,-92.683233,N,0,,,,Y,https://echo.epa.gov/detailed-facility-report?fid=110005466931
"ANYTHING CUSTOM","690 WISCONSIN AVE",CHETEK,WI,110005473754,BARRON,45.3071,-91.64383,N,0,,,,Y,https://echo.epa.gov/detailed-facility-report?fid=110005473754
"GILBERTSONS CLEANERS & TAILORS","2128 SHERWIN AVE","EAU CLAIRE",WI,110005459002,"EAU CLAIRE",44.80827,-91.47055,N,0,,,,Y,https://echo.epa.gov/detailed-facility-report?fid=110005459002
"DELLS CAMPING RESORT 2",,,WI,110051988499,ADAMS,43.973763,-89.767223,N,12,,,,Y,https://echo.epa.gov/detailed-facility-report?fid=110051988499
"ST. CROIX VALLEY RACEWAY",,,WI,110063359538,POLK,45.46803,-92.453154,N,0,,,,Y,https://echo.epa.gov/detailed-facility-report?fid=110063359538
"FERGUSON #0279","2135 ENTERPRISE AVE","LA CROSSE",WI,110009517246,"LA CROSSE",43.863556,-91.22599,N,0,,,,Y,https://echo.epa.gov/detailed-facility-report?fid=110009517246
"MAYVILLE LIMESTONE INC",,,WI,110049588497,DODGE,43.422706,-88.704379,N,0,,,,Y,https://echo.epa.gov/detailed-facility-report?fid=110049588497
"SHADY BROOK",,,WI,110052024448,LANGLADE,45.259204,-89.06819,N,12,,,,Y,https://echo.epa.gov/detailed-facility-report?fid=110052024448
"WILD HORSE SALOON",,,WI,110050564448,PORTAGE,44.476246,-89.49807,N,0,,,,Y,https://echo.epa.gov/detailed-facility-report?fid=110050564448
"DANIELS JIM","3305 LAKE DR",DELAFIELD,WI,110005530657,WAUKESHA,43.08754,-88.38436,N,0,,,,Y,https://echo.epa.gov/detailed-facility-report?fid=110005530657
"WISCONSIN BELL INC PH0120","S75 W17425 JANESVILLE RD",MUSKEGO,WI,110005455462,WAUKESHA,42.907515,-88.131617,N,0,,,,Y,https://echo.epa.gov/detailed-facility-report?fid=110005455462
"CEDARBURG PHARMACEUTICALS LLC","870 BADGER CIR",GRAFTON,WI,110013287102,OZAUKEE,43.32678,-87.93248,N,2,,,148709,Y,https://echo.epa.gov/detailed-facility-report?fid=110013287102
"FAMILY DOLLAR #7003","2849 N SHERMAN AVE",MADISON,WI,110063742080,DANE,43.127912,-89.363553,N,0,,,,Y,https://echo.epa.gov/detailed-facility-report?fid=110063742080
"FARM & FLEET OF DODGEVILLE",,,WI,110049514183,IOWA,43.001021,-90.133692,N,0,,,,Y,https://echo.epa.gov/detailed-facility-report?fid=110049514183
"VALLEY PLATING AND FABRICATING","536 ELIZABETH ST","GREEN BAY",WI,110020518965,BROWN,44.5101,-87.98287,N,0,,,,Y,https://echo.epa.gov/detailed-facility-report?fid=110020518965
"POMPS TIRE","1410 S MAIN ST","RICE LAKE",WI,110005530078,BARRON,45.48616,-91.73339,N,0,,,,Y,https://echo.epa.gov/detailed-facility-report?fid=110005530078
"DEER RUN GOLF COURSE",,,WI,110050791256,DOOR,45.067808,-87.087936,N,0,,,,Y,https://echo.epa.gov/detailed-facility-report?fid=110050791256
"FAMILY DOLLAR #10329","W2820 WARRINGTON RD",KESHENA,WI,110063675777,MENOMINEE,44.870831,-88.62662,N,0,,,,Y,https://echo.epa.gov/detailed-facility-report?fid=110063675777
"COUNTRY AIRE CONDOS 4875","4875 EASY ST",HARTLAND,WI,110013075144,WAUKESHA,43.10407,-88.36057,N,0,,,,Y,https://echo.epa.gov/detailed-facility-report?fid=110013075144
"YORKVILLE UNITED METHODIST CHURCH",,,WI,110050783540,RACINE,42.754075,-87.414676,N,0,,,,Y,https://echo.epa.gov/detailed-facility-report?fid=110050783540
"OAK RIDGE MOBILE COM","3525 TRIELOFF RD","FORT ATKINSON",WI,110013088121,JEFFERSON,42.97046,-88.929038,N,0,,,,Y,https://echo.epa.gov/detailed-facility-report?fid=110013088121
"SOUTH TOWN CINEMA","2867 S 108TH ST","WEST ALLIS",WI,110005518804,MILWAUKEE,42.991658,-88.047165,N,0,,,,Y,https://echo.epa.gov/detailed-facility-report?fid=110005518804
"SOMERSET NORTH WELL",,,WI,110050856882,DOOR,45.067808,-87.087936,N,0,,,,Y,https://echo.epa.gov/detailed-facility-report?fid=110050856882
"CHIPPEWA CO MORRIS ERICKSON COUNTY PARK",,,WI,110050535961,CHIPPEWA,45.069092,-91.283505,N,1,,,,Y,https://echo.epa.gov/detailed-facility-report?fid=110050535961
"NEW LONDON ENGINEERING CO","1700 S DIVISION ST","NEW LONDON",WI,110005437036,OUTAGAMIE,44.37798,-88.73685,N,0,,,,Y,https://echo.epa.gov/detailed-facility-report?fid=110005437036
"SYNERGY COOPERATIVE - SAND CREEK",,,WI,WI6170714,Dunn,44.947741,-91.89772,N,2,,,,Y,https://echo.epa.gov/detailed-facility-report?fid=WI6170714
"FEDERAL EXPRESS CORP","3512 MITCHELL TRUAX AIRPORT",MADISON,WI,110005470739,DANE,43.131638,-89.329541,N,0,,,,Y,https://echo.epa.gov/detailed-facility-report?fid=110005470739
"GREENBUSH TRAILHEAD",,,WI,110052036514,SHEBOYGAN,43.746002,-87.730546,N,0,,,,Y,https://echo.epa.gov/detailed-facility-report?fid=110052036514
"SAIA INC - MILWAUKEE TERMINAL","4939 S 6TH ST",MILWAUKEE,WI,110005501554,MILWAUKEE,42.95502,-87.91952,N,0,,,,Y,https://echo.epa.gov/detailed-facility-report?fid=110005501554
"DUO-SAFETY LADDER CORP","513 W 9TH AVE",OSHKOSH,WI,110005423096,WINNEBAGO,44.0104,-88.55031,N,0,,,,Y,https://echo.epa.gov/detailed-facility-report?fid=110005423096
"R REEF FUNDS","250 E WISCONSIN AVE STE 1025",MILWAUKEE,WI,110005495865,MILWAUKEE,43.03865,-87.90826,N,0,,,,Y,https://echo.epa.gov/detailed-facility-report?fid=110005495865
"D E M FEDERATED TRANSPORT","100 UTILITY ST",ELLSWORTH,WI,110005502517,PIERCE,44.73229,-92.4587,N,0,,,,Y,https://echo.epa.gov/detailed-facility-report?fid=110005502517
"DENMARK WATERWORKS"," ",DENMARK,WI,110013075215,BROWN,44.3618,-87.8179,N,0,,,,Y,https://echo.epa.gov/detailed-facility-report?fid=110013075215
"DON MILLER INC","5751 TOKAY BLVD",MADISON,WI,110045993859,DANE,43.0535,-89.47994,N,0,,,,Y,https://echo.epa.gov/detailed-facility-report?fid=110045993859
"CITY BREWING CO INC","1028 S 3RD ST","LA CROSSE",WI,110005426805,"LA CROSSE",43.803351,-91.253506,N,0,,,,Y,https://echo.epa.gov/detailed-facility-report?fid=110005426805
"KAMADO FLO AT THE SWAN BARN DOOR",,,WI,WI7010620,Adams,43.973763,-89.767223,N,0,,,,Y,https://echo.epa.gov/detailed-facility-report?fid=WI7010620
"DOUBLE GEES",,,WI,110050766792,WAUKESHA,43.019308,-88.306707,N,0,,,,Y,https://echo.epa.gov/detailed-facility-report?fid=110050766792
"D & S MANUFACTURING CO INC","111 MCKINLEY ST","BLACK RIVER FALLS",WI,110002034325,JACKSON,44.294846,-90.840991,N,0,,,,Y,https://echo.epa.gov/detailed-facility-report?fid=110002034325
"SIX LAKES RESORT-BAR 4",,,WI,110049953109,BARRON,45.437192,-91.852892,N,0,,,,Y,https://echo.epa.gov/detailed-facility-report?fid=110049953109
"EHLENBACHS CHEESE CHALET",,,WI,110049908454,DANE,43.067468,-89.417852,N,0,,,,Y,https://echo.epa.gov/detailed-facility-report?fid=110049908454
"DIESEL FORWARD INC","6167 PEPSI WAY",WINDSOR,WI,110064542295,DANE,43.19044,-89.3359,N,0,,,,Y,https://echo.epa.gov/detailed-facility-report?fid=110064542295
"M J STEVENS",,,WI,110050835316,WASHINGTON,43.391156,-88.232917,N,0,,,,Y,https://echo.epa.gov/detailed-facility-report?fid=110050835316
"SCHNEIDER FARMS INC","W2920 FARO SPRINGS RD","WOODVILLE, TOWN OF",WI,110041246096,CALUMET,44.121947,-88.1855,N,0,,,,Y,https://echo.epa.gov/detailed-facility-report?fid=110041246096
"CURTISS STREET BIBLE FELLOWSHIP",,,WI,110053037254,DANE,43.067468,-89.417852,N,0,,,,Y,https://echo.epa.gov/detailed-facility-report?fid=110053037254
"CHRAMOSTA JOE BODY AND PAINT","CNTY HWY A NORTH","IRON RIVER",WI,110070637051,BAYFIELD,46.582773,-91.427703,N,0,,,,Y,https://echo.epa.gov/detailed-facility-report?fid=110070637051
"EBENEZER MORAVIAN CHURCH",,,WI,110049975327,JEFFERSON,43.013807,-88.773986,N,0,,,,Y,https://echo.epa.gov/detailed-facility-report?fid=110049975327
"VILLAGE HEIGHTS"," ",THIENSVILLE,WI,110013082519,OZAUKEE,43.2197,-87.9486,N,0,,,,Y,https://echo.epa.gov/detailed-facility-report?fid=110013082519
"FOREMOST FARMS USA COOPERATIVE","487 HWY 128",WILSON,WI,110000742714,"ST. CROIX",44.927528,-92.1955,N,0,,,,Y,https://echo.epa.gov/detailed-facility-report?fid=110000742714
"J & R TIRE","662 N KNOWLES AVE","NEW RICHMOND",WI,110005450644,"ST. CROIX",45.12901,-92.53759,N,0,,,,Y,https://echo.epa.gov/detailed-facility-report?fid=110005450644
"ZEP MFG CO","2909 S 160TH ST","NEW BERLIN",WI,110005452134,WAUKESHA,42.993043,-88.113701,N,0,,,,Y,https://echo.epa.gov/detailed-facility-report?fid=110005452134
"LEDGEVIEW FARMS","3875 DICKINSON ROAD","DE PERE",WI,110055240822,BROWN,44.42326,-87.96878,N,0,,,,Y,https://echo.epa.gov/detailed-facility-report?fid=110055240822
"MAPLE RIDGE DAIRY BUSINESS, LLC.","EP 4271 MARCH RAPIDS AVENUE, STRATFORD, WI 54484","EAU PLEINE, TOWN OF",WI,110040439282,MARATHON,44.813245,-90.152801,N,0,,,,Y,https://echo.epa.gov/detailed-facility-report?fid=110040439282
"DIESEL TRUCK SERVICE","JEFFERSON RD BOX 1075",COLBY,WI,110005468911,CLARK,44.91156,-90.31797,N,0,,,,Y,https://echo.epa.gov/detailed-facility-report?fid=110005468911
"MILWAUKEE STOCKYARDS, DODGE CO",,,WI,110049863466,DODGE,43.422706,-88.704379,N,0,,,,Y,https://echo.epa.gov/detailed-facility-report?fid=110049863466
"PREVEA GILLETT CLINIC","340 N GREEN BAY AVE",GILLETT,WI,110070200669,OCONTO,44.89644,-88.29714,N,0,,,,Y,https://echo.epa.gov/detailed-facility-report?fid=110070200669
"RUSTYS BACKWATER SALOON",,,WI,110052015760,PORTAGE,44.476246,-89.49807,N,0,,,,Y,https://echo.epa.gov/detailed-facility-report?fid=110052015760
"ELITE MARBLE CO","5 E PARK ST",MONTELLO,WI,110005470551,MARQUETTE,43.793701,-89.327316,N,0,,,,Y,https://echo.epa.gov/detailed-facility-report?fid=110005470551
"CHAPMAN PARK - MAVES MEMORIAL",,,WI,110049883104,CHIPPEWA,45.069092,-91.283505,N,0,,,,Y,https://echo.epa.gov/detailed-facility-report?fid=110049883104
"AUTOZONE #1976","1168 W MASON ST","GREEN BAY",WI,110070123510,BROWN,44.51765,-88.04674,N,0,,,,Y,https://echo.epa.gov/detailed-facility-report?fid=110070123510
"MILWAUKEE ELECTRIC TOOL DBA EMPIRE LEVEL","932 EMPIRE DR BLDG #4",MUKWONAGO,WI,110020746656,WAUKESHA,42.866894,-88.315045,N,0,,,,Y,https://echo.epa.gov/detailed-facility-report?fid=110020746656
"BLACKHAWK LAKE GROUP CAMPGROUND",,,WI,110049648850,IOWA,43.001021,-90.133692,N,0,,,,Y,https://echo.epa.gov/detailed-facility-report?fid=110049648850
"SNYDERS Y PINE TAVERN",,,WI,110050557615,SAWYER,45.864913,-91.14713,N,0,,,,Y,https://echo.epa.gov/detailed-facility-report?fid=110050557615
"ATLAS COPCO CONSTRUCTION MINING TECH USA LLC","11825 W CARMEN AVE",MILWAUKEE,WI,110055131584,MILWAUKEE,43.122546,-88.058762,N,0,,,,Y,https://echo.epa.gov/detailed-facility-report?fid=110055131584
"JARP INDUSTRIES INC","1051 PINE ST",SCHOFIELD,WI,110005426627,MARATHON,44.91547,-89.598962,N,1,,,124467,Y,https://echo.epa.gov/detailed-facility-report?fid=110005426627
"GIBRALTAR COMMUNITY CTR","4097 MAIN ST","FISH CREEK",WI,110016934914,DOOR,45.126828,-87.241806,N,0,,,,Y,https://echo.epa.gov/detailed-facility-report?fid=110016934914
"VILLAGE KITCHEN RESTR",,,WI,110050667729,KEWAUNEE,44.500949,-87.161813,N,0,,,,Y,https://echo.epa.gov/detailed-facility-report?fid=110050667729
"ROAD AMERICA VIP BLDG MEDIA CTR HI CAP WELL",,,WI,110050611183,SHEBOYGAN,43.746002,-87.730546,N,0,,,,Y,https://echo.epa.gov/detailed-facility-report?fid=110050611183
"WISSOTA ENTERPRISES INC","12746 37TH AVE","CHIPPEWA FALLS",WI,110005540398,CHIPPEWA,44.89614,-91.41355,N,0,,,,Y,https://echo.epa.gov/detailed-facility-report?fid=110005540398
"WALGREENS CO #9682","219 W MAIN ST","LITTLE CHUTE",WI,110056338565,OUTAGAMIE,44.27997,-88.31761,N,0,,,,Y,https://echo.epa.gov/detailed-facility-report?fid=110056338565
"SCHAUMBURG SUPPER CLUB",,,WI,110049565662,DODGE,43.422706,-88.704379,N,0,,,,Y,https://echo.epa.gov/detailed-facility-report?fid=110049565662
"LONGBRANCH SALOON",,,WI,110049979699,MARQUETTE,43.826053,-89.409095,N,0,,,,Y,https://echo.epa.gov/detailed-facility-report?fid=110049979699
"GROUP THERAPY",,,WI,110050602852,MARATHON,44.898036,-89.757823,N,0,,,,Y,https://echo.epa.gov/detailed-facility-report?fid=110050602852
"SPECIALTY MINERALS INC","1 WATER ST",SUPERIOR,WI,110063989224,"NORTHAMPTON ",46.73022,-92.07915,N,2,,,,Y,https://echo.epa.gov/detailed-facility-report?fid=110063989224
"LK LUNDGREN BIBLE CP MAIN",,,WI,110050726318,MARINETTE,45.346899,-87.991198,N,0,,,,Y,https://echo.epa.gov/detailed-facility-report?fid=110050726318
"TOMAHAWK SCOUT RES-CAYUGA",,,WI,110052007715,WASHBURN,45.892463,-91.796423,N,0,,,,Y,https://echo.epa.gov/detailed-facility-report?fid=110052007715
"ALL WORLD FORD",,,WI,WI4452027,Outagamie,44.418226,-88.464988,N,0,,,,Y,https://echo.epa.gov/detailed-facility-report?fid=WI4452027
"SMITH AUTO BODY","215 S OAK ST","WEST SALEM",WI,110005483547,"LA CROSSE",43.894248,-91.086278,N,0,,,,Y,https://echo.epa.gov/detailed-facility-report?fid=110005483547
"SUPER PRODUCTS LLC","17000 W CLEVELAND AVE","NEW BERLIN",WI,110005439472,WAUKESHA,42.99441,-88.12613,N,0,,,,Y,https://echo.epa.gov/detailed-facility-report?fid=110005439472
"PADDOCK TOM A","24740 75TH ST","PADDOCK LAKE",WI,110014365463,KENOSHA,42.56825,-88.10862,N,0,,,,Y,https://echo.epa.gov/detailed-facility-report?fid=110014365463
"CAMP INTERLAKEN  RECREATION HALL",,,WI,110050761494,VILAS,46.049848,-89.501254,N,0,,,,Y,https://echo.epa.gov/detailed-facility-report?fid=110050761494
"TROY TERRACE MHP","139 NATURE RD","EAST TROY",WI,110013081093,WALWORTH,42.8225,-88.46415,N,0,,,,Y,https://echo.epa.gov/detailed-facility-report?fid=110013081093
"CUMMINS EMISSION SOLUTIONS WAUTOMA","431 EAST DIVISION STREET",WAUTOMA,WI,110002035333,WAUSHARA,44.06893,-89.28018,N,0,,,,Y,https://echo.epa.gov/detailed-facility-report?fid=110002035333
"DEAN DERGE ORNAMENTAL IRONWORK","7875 HWY 45",KEWAUSKUM,WI,110070634836,WASHINGTON,43.55598,-88.183371,N,0,,,,Y,https://echo.epa.gov/detailed-facility-report?fid=110070634836
"US HEALTHWORKS-PARK PLACE","11414 W PARK PL STE 100",MILWAUKEE,WI,110070634051,MILWAUKEE,43.15262,-88.05417,N,0,,,,Y,https://echo.epa.gov/detailed-facility-report?fid=110070634051
LAUTERBACH,"1450 SOUTH WEST AVENUE",WAUKESHA,WI,110014365908,WAUKESHA,42.98647,-88.23716,N,0,,,,Y,https://echo.epa.gov/detailed-facility-report?fid=110014365908
"UNIVERSITY OF WI MADISON EH&S DEPT","30 N MURRAY ST",MADISON,WI,110005468797,DANE,43.07316,-89.39901,N,3,,,,Y,https://echo.epa.gov/detailed-facility-report?fid=110005468797
"GREAT LAKES CHEESE OF WAUSAU, WISCONSIN, INC.","9912 INNOVATION WAY",WAUSAU,WI,WIR000172635,"EAU CLAIRE",44.961158,-89.698843,N,0,,,,Y,https://echo.epa.gov/detailed-facility-report?fid=WIR000172635
"RICH PRODUCTS CORPORATION, APPLETON DIVISION","3300 W COLLEGE AVE",APPLETON,WI,110000423195,OUTAGAMIE,44.266639,-88.460167,N,0,,,,Y,https://echo.epa.gov/detailed-facility-report?fid=110000423195
"NEOSHO ELEMENTARY",,,WI,110049947965,DODGE,43.422706,-88.704379,N,0,,,,Y,https://echo.epa.gov/detailed-facility-report?fid=110049947965
"STOCKBRIDGE WASTEWATER TREATMENT FACILITY","N2511 HWY 57","NEW HOLSTEIN",WI,110010889360,CALUMET,43.989111,-88.12201,N,0,,,,Y,https://echo.epa.gov/detailed-facility-report?fid=110010889360
"T K COUNTRY CONVENIENCE",,,WI,110050569755,OCONTO,44.996575,-88.206516,N,0,,,,Y,https://echo.epa.gov/detailed-facility-report?fid=110050569755
"BIG BAY ISLAND PARK SHOWERS",,,WI,110063337214,ASHLAND,46.546291,-90.665154,N,0,,,,Y,https://echo.epa.gov/detailed-facility-report?fid=110063337214
"ZION LUTHERAN CHURCH",,,WI,110051987597,"EAU CLAIRE",44.726355,-91.286414,N,0,,,,Y,https://echo.epa.gov/detailed-facility-report?fid=110051987597
"UKS AUTO CENTER","3045 S KINNICKINNIC AVE",MILWAUKEE,WI,110005449979,MILWAUKEE,42.98969,-87.88424,N,0,,,,Y,https://echo.epa.gov/detailed-facility-report?fid=110005449979
"MILL VALLEY RECYCLING","1006 S. BARCLAY STREET",MILWAUKEE,WI,110037233080,MILWAUKEE,43.02105,-87.90988,N,0,,,,Y,https://echo.epa.gov/detailed-facility-report?fid=110037233080
"LEAHYS COLLISION CLINIC","14770 HWY 23 N",DARLINGTON,WI,110006146232,LAFAYETTE,42.700208,-90.120347,N,0,,,,Y,https://echo.epa.gov/detailed-facility-report?fid=110006146232
"SHAWANO PRINTING","325 S MAIN ST",SHAWANO,WI,110005412151,SHAWANO,44.77775,-88.60923,N,0,,,,Y,https://echo.epa.gov/detailed-facility-report?fid=110005412151
"MIDWESTERN BIO AG",,,WI,110049848581,DANE,43.067468,-89.417852,N,0,,,,Y,https://echo.epa.gov/detailed-facility-report?fid=110049848581
"SIEBERTS PUB",,,WI,110049593515,KENOSHA,42.579703,-87.424898,N,0,,,,Y,https://echo.epa.gov/detailed-facility-report?fid=110049593515
"LOON SALOON",,,WI,110052034357,BAYFIELD,46.634199,-91.177282,N,12,,,,Y,https://echo.epa.gov/detailed-facility-report?fid=110052034357
"VALLEY CABINET INC","845 PROSPER ST","DE PERE",WI,110002037947,BROWN,44.42306,-88.0587,N,0,,,,Y,https://echo.epa.gov/detailed-facility-report?fid=110002037947
"RUFLEDTS WELDING & STEEL","RT 1",BLOOMER,WI,110008240288,CHIPPEWA,45.107877,-91.651497,N,0,,,,Y,https://echo.epa.gov/detailed-facility-report?fid=110008240288
"SALLY BEAUTY 1695","3763 GATEWAY DR","EAU CLAIRE",WI,110070395211,"EAU CLAIRE",44.776988,-91.431748,N,0,,,,Y,https://echo.epa.gov/detailed-facility-report?fid=110070395211
"NEW BERLIN WATER UTILITY HYDRANT FLUSHING","16250 W NATIONAL AVE","NEW BERLIN",WI,110013076704,WAUKESHA,42.971297,-88.115494,N,12,,,,Y,https://echo.epa.gov/detailed-facility-report?fid=110013076704
"WALGREEN CO #111","676 STATE ST",MADISON,WI,110056338002,DANE,43.07487,-89.39712,N,0,,,,Y,https://echo.epa.gov/detailed-facility-report?fid=110056338002
"FARM AND FLEET OF PLATTEVILLE","5841 STH 80 & 81",PLATTEVILLE,WI,110070635756,LAFAYETTE,42.745561,-90.528404,N,0,,,,Y,https://echo.epa.gov/detailed-facility-report?fid=110070635756
"DOLLAR GENERAL STORE #6914","1231 WATER AVE",HILLSBORO,WI,110070125614,VERNON,43.65461,-90.33528,N,0,,,,Y,https://echo.epa.gov/detailed-facility-report?fid=110070125614
MEDTORQUE,"5601 95TH AVE",KENOSHA,WI,110070638181,KENOSHA,42.5854,-87.92003,N,0,,,,Y,https://echo.epa.gov/detailed-facility-report?fid=110070638181
"LOG CABIN RESORT",,,WI,110051980987,WASHBURN,45.892463,-91.796423,N,0,,,,Y,https://echo.epa.gov/detailed-facility-report?fid=110051980987
"HANSONS CORNER STORE",,,WI,110052004736,"EAU CLAIRE",44.726355,-91.286414,N,0,,,,Y,https://echo.epa.gov/detailed-facility-report?fid=110052004736
"WARRENS AUTO BODY","548 DUTTON ST",BURLINGTON,WI,110005450984,RACINE,42.66757,-88.28543,N,0,,,,Y,https://echo.epa.gov/detailed-facility-report?fid=110005450984
"THOMSON MARINE","1332 S 13TH ST",SHEBOYGAN,WI,110005432941,SHEBOYGAN,43.74011,-87.72127,N,0,,,,Y,https://echo.epa.gov/detailed-facility-report?fid=110005432941
"WI DNR PIKE LAKE CMPGRD",,,WI,110050886494,WASHINGTON,43.391156,-88.232917,N,0,,,,Y,https://echo.epa.gov/detailed-facility-report?fid=110050886494
"TRI-PAR OIL COMPANY, INC.","117 WEST GRAND AVENUE","PORT WASHINGTON",WI,110061770356,OZAUKEE,43.38759,-87.87184,N,0,,,,Y,https://echo.epa.gov/detailed-facility-report?fid=110061770356
"ELROY FAMILY MEDICAL CTR","1515 ACADEMY ST",ELROY,WI,110060923988,JUNEAU,43.75508,-90.27334,N,0,,,,Y,https://echo.epa.gov/detailed-facility-report?fid=110060923988
"RUSHES CONDOS REC CTR",,,WI,110050773506,DOOR,45.067808,-87.087936,N,0,,,,Y,https://echo.epa.gov/detailed-facility-report?fid=110050773506
"A-1 CLEANERS","10000 N PORT WASHINGTON RD",MEQUON,WI,110005506595,OZAUKEE,43.1997,-87.92426,N,0,,,,Y,https://echo.epa.gov/detailed-facility-report?fid=110005506595
"BRAKE CLUTCH & DRUM SERVICE","4934 W STATE ST",MILWAUKEE,WI,110001924384,MILWAUKEE,43.04411,-87.97539,N,0,,,,Y,https://echo.epa.gov/detailed-facility-report?fid=110001924384
"SHEPHERD OF THE BAY LUTHERAN",,,WI,110050549117,DOOR,45.067808,-87.087936,N,2,,,,Y,https://echo.epa.gov/detailed-facility-report?fid=110050549117
"GLEASON BOWLING CENTER",,,WI,110052000687,LINCOLN,45.338319,-89.742082,N,0,,,,Y,https://echo.epa.gov/detailed-facility-report?fid=110052000687
"YMCA CAMP ST CROIX -  STABLE",,,WI,110052023430,"ST. CROIX",45.028959,-92.447284,N,0,,,,Y,https://echo.epa.gov/detailed-facility-report?fid=110052023430
"FAMILY DOLLAR #5240","1819 MIDWAY RD",MENASHA,WI,110063675919,WINNEBAGO,44.2296,-88.405153,N,0,,,,Y,https://echo.epa.gov/detailed-facility-report?fid=110063675919
"FUSION BABBITING","4540 WEST BURNHAM ST",MILWAUKEE,WI,110043779827,MILWAUKEE,43.01015,-87.97116,N,0,,,,Y,https://echo.epa.gov/detailed-facility-report?fid=110043779827
"LIVING HOPE CHURCH",,,WI,110049921689,SAUK,43.427998,-89.943329,N,0,,,,Y,https://echo.epa.gov/detailed-facility-report?fid=110049921689
"NORTH LAKE INN",,,WI,110050803779,WAUKESHA,43.019308,-88.306707,N,0,,,,Y,https://echo.epa.gov/detailed-facility-report?fid=110050803779
"FOLSTRUM SOUTH MARATHON MINI MART",,,WI,110051975966,MARQUETTE,43.826053,-89.409095,N,4,,,,Y,https://echo.epa.gov/detailed-facility-report?fid=110051975966
"SPARKS AUTO BODY","12075 FORTUNE RD",TOMAH,WI,110005543233,MONROE,43.9999,-90.42784,N,0,,,,Y,https://echo.epa.gov/detailed-facility-report?fid=110005543233
"HORSENS HOMESTEAD FARMS LLC","W1980 COUNTY ROAD C","GREEN VALLEY, TOWN OF",WI,110070568175,SHAWANO,44.83826,-88.34361,N,0,,,,Y,https://echo.epa.gov/detailed-facility-report?fid=110070568175
"BLACKHAWK FAMILY RESTAURANT",,,WI,110049713440,SAUK,43.427998,-89.943329,N,12,,,,Y,https://echo.epa.gov/detailed-facility-report?fid=110049713440
"SUMMIT METAL FABRICATING","5707 S PENNSYLVANIA AVE",CUDAHY,WI,110005434798,MILWAUKEE,42.94065,-87.87995,N,0,,,,Y,https://echo.epa.gov/detailed-facility-report?fid=110005434798
"AMERICAN FINISHING RESOURCES","476 CLAY ST",CHILTON,WI,110000416121,CALUMET,44.03071,-88.1494,N,6,,,26141,Y,https://echo.epa.gov/detailed-facility-report?fid=110000416121
"HERITAGE AUTOMOTIVE","901 OGDEN AVE",SUPERIOR,WI,110005485910,DOUGLAS,46.72759,-92.10235,N,0,,,,Y,https://echo.epa.gov/detailed-facility-report?fid=110005485910
"MINK PEN",,,WI,110050655260,LANGLADE,45.259204,-89.06819,N,12,,,,Y,https://echo.epa.gov/detailed-facility-report?fid=110050655260
"KENNEDY PARK",,,WI,110050570592,POLK,45.46803,-92.453154,N,0,,,,Y,https://echo.epa.gov/detailed-facility-report?fid=110050570592
"WAUSAU PAPER","832 W JAMES ST",COLUMBUS,WI,110002034003,COLUMBIA,43.34307,-89.02256,N,0,,,,Y,https://echo.epa.gov/detailed-facility-report?fid=110002034003
"GIBRALTAR NOBLE HOUSE & ANNEX",,,WI,WI4150429,Door,45.067808,-87.087936,N,0,,,,Y,https://echo.epa.gov/detailed-facility-report?fid=WI4150429
"JCS BROOKSIDE RV PARK",,,WI,WI8550550,Rusk,45.472734,-91.136745,N,0,,,,Y,https://echo.epa.gov/detailed-facility-report?fid=WI8550550
TRIANGLE,,,WI,110049887538,KENOSHA,42.579703,-87.424898,N,0,,,,Y,https://echo.epa.gov/detailed-facility-report?fid=110049887538
"LAKE FOREST RSRT & CLB BLDG 17-24",,,WI,110051970603,VILAS,46.049848,-89.501254,N,0,,,,Y,https://echo.epa.gov/detailed-facility-report?fid=110051970603
"BELLIN HEALTH FAMILY MEDICAL CENTER","964 W RYAN ST STE B",BRILLION,WI,110039590779,CALUMET,44.18661,-88.08862,N,0,,,,Y,https://echo.epa.gov/detailed-facility-report?fid=110039590779
"JOHN H HARLAND CO","W229 N1477 WESTWOOD DR",WAUKESHA,WI,110005453598,WAUKESHA,43.051102,-88.205194,N,0,,,,Y,https://echo.epa.gov/detailed-facility-report?fid=110005453598
"BAGLEY WASTEWATER TREATMENT FA","500 S. BAILEY LANE",BAGLEY,WI,110010883829,GRANT,42.9027,-91.10286,N,0,,,,Y,https://echo.epa.gov/detailed-facility-report?fid=110010883829
"JULIES PARK CAFE & MOTEL",,,WI,110050763401,DOOR,45.067808,-87.087936,N,12,,,,Y,https://echo.epa.gov/detailed-facility-report?fid=110050763401
"STOCKBRIDGE MUNSEE TRIBAL CTR","N8476 MOHHECONNUCK RD",BOWLER,WI,110005407782,SHAWANO,44.89724,-88.94057,N,0,,,,Y,https://echo.epa.gov/detailed-facility-report?fid=110005407782
"CVS PHARMACY #8773","3030 W VILLARD AVE",MILWAUKEE,WI,110045396683,MILWAUKEE,43.111834,-87.950434,N,0,,,,Y,https://echo.epa.gov/detailed-facility-report?fid=110045396683
"WI DNR KEGONSA BOAT LANDING",,,WI,110049921545,DANE,43.067468,-89.417852,N,0,,,,Y,https://echo.epa.gov/detailed-facility-report?fid=110049921545
"MUSTANG SHELLYS ROADHOUSE",,,WI,110050857337,WAUKESHA,43.019308,-88.306707,N,0,,,,Y,https://echo.epa.gov/detailed-facility-report?fid=110050857337
"WAUSAUKEE EVERGREEN PK EAST",,"WAUSAUKEE TN",WI,110016891782,MARINETTE,45.3699,-87.8913,N,0,,,,Y,https://echo.epa.gov/detailed-facility-report?fid=110016891782
"ST JOHN LUTHERAN CH",,,WI,110050544522,DOOR,45.067808,-87.087936,N,12,,,,Y,https://echo.epa.gov/detailed-facility-report?fid=110050544522
"GOOD SHEPHERD CATHOLIC CH","241 E 6TH ST",WESTFIELD,WI,110016860814,MARQUETTE,43.881322,-89.48997,N,0,,,,Y,https://echo.epa.gov/detailed-facility-report?fid=110016860814
"COOKSVILLE LUTHERAN CHURCH",,,WI,110049669024,ROCK,42.669931,-89.075119,N,0,,,,Y,https://echo.epa.gov/detailed-facility-report?fid=110049669024
"TREPANIER LLC",,,WI,110052011096,OCONTO,44.996575,-88.206516,N,0,,,,Y,https://echo.epa.gov/detailed-facility-report?fid=110052011096
"OFFICEMAX STORE #6359","3555 S 27TH ST",MILWAUKEE,WI,110070260150,MILWAUKEE,42.980411,-87.9485,N,0,,,,Y,https://echo.epa.gov/detailed-facility-report?fid=110070260150
"TRAILS END LODGE",,,WI,110051988015,MARATHON,44.898036,-89.757823,N,0,,,,Y,https://echo.epa.gov/detailed-facility-report?fid=110051988015
"OUR SAVIORS LUTHERAN CHURCH",,,WI,110050535569,BARRON,45.437192,-91.852892,N,0,,,,Y,https://echo.epa.gov/detailed-facility-report?fid=110050535569
"BEMIS MANUFACTURING CO - PRODUCT DEV","211 FOREST AVE","SHEBOYGAN FALLS",WI,110005433281,SHEBOYGAN,43.74101,-87.80332,N,0,,,,Y,https://echo.epa.gov/detailed-facility-report?fid=110005433281
"WI DNR BLUE MOUND UPPER WELL",,,WI,110049627999,IOWA,43.001021,-90.133692,N,3,,,,Y,https://echo.epa.gov/detailed-facility-report?fid=110049627999
"COUNTRY STATION",,,WI,110050624008,WALWORTH,42.66811,-88.541731,N,0,,,,Y,https://echo.epa.gov/detailed-facility-report?fid=110050624008
"ST MARY OF THE HILL PARISH CHURCH",,,WI,110050552282,WASHINGTON,43.391156,-88.232917,N,0,,,,Y,https://echo.epa.gov/detailed-facility-report?fid=110050552282
"BARB & JOHNS HANGER",,,WI,110049874766,KENOSHA,42.579703,-87.424898,N,0,,,,Y,https://echo.epa.gov/detailed-facility-report?fid=110049874766
"BERGSTROMS BUICK & TOYOTA","40 COPELAND AVE","LA CROSSE",WI,110005430809,"LA CROSSE",43.82265,-91.24919,N,0,,,,Y,https://echo.epa.gov/detailed-facility-report?fid=110005430809
"DEKORRA UTILITY DISTRICT #1 WWTF","SEQ, NEQ, SECTION 13, T11N, R8E, DEKORRA TWP., POY","DEKORRA, TOWN OF",WI,110070024073,COLUMBIA,43.409972,-89.395597,N,0,,,,Y,https://echo.epa.gov/detailed-facility-report?fid=110070024073
"J C PENNEY CORP INC STORE #2437","128 WOODLAWN DR",SHAWANO,WI,110033624763,SHAWANO,44.78483,-88.58631,N,0,,,,Y,https://echo.epa.gov/detailed-facility-report?fid=110033624763
"LAUREL LAKES 608"," ",THIENSVILLE,WI,110013082332,OZAUKEE,43.2197,-87.9486,N,0,,,,Y,https://echo.epa.gov/detailed-facility-report?fid=110013082332
"RESINLAB KITPACKERS","N109 W13300 ELLSWORTH DRIVE",GERMANTOWN,WI,110070244775,"WASHINGTON COUNTY",43.216532,-88.072854,N,,,,1437,Y,https://echo.epa.gov/detailed-facility-report?fid=110070244775
"REDEEMER UNITED CHURCH OF CHRIST",,,WI,110050838224,WAUKESHA,43.019308,-88.306707,N,0,,,,Y,https://echo.epa.gov/detailed-facility-report?fid=110050838224
"NEW LIFE PRESS","2971 9TH AVE",MONROE,WI,110005410144,GREEN,42.58568,-89.64862,N,0,,,,Y,https://echo.epa.gov/detailed-facility-report?fid=110005410144
"SUPERIOR BATTERY & LUBE","417 MAIN ST",ASHLAND,WI,110005504203,ASHLAND,46.775096,-90.783288,N,0,,,,Y,https://echo.epa.gov/detailed-facility-report?fid=110005504203
WALGREENS,"806 S MAIN ST","WEST BEND",WI,110012181227,WASHINGTON,43.41203,-88.18109,N,0,,,,Y,https://echo.epa.gov/detailed-facility-report?fid=110012181227
"LINER BAR",,,WI,110052026856,,44.628484,-89.71193,N,0,,,,Y,https://echo.epa.gov/detailed-facility-report?fid=110052026856
"CORDELLAS SOUTH BAY RESORT",,,WI,110050733952,VILAS,46.049848,-89.501254,N,0,,,,Y,https://echo.epa.gov/detailed-facility-report?fid=110050733952
"GUSTMAN COLLISION CENTER","725 WOODLAND PLAZA",SEYMOUR,WI,110005436304,OUTAGAMIE,44.50074,-88.32119,N,0,,,,Y,https://echo.epa.gov/detailed-facility-report?fid=110005436304
"BUZDUMS PUB","W188 N11707 MAPLE RD",GERMANTOWN,WI,110015320678,WASHINGTON,43.218146,-88.143112,Y,7,,,,Y,https://echo.epa.gov/detailed-facility-report?fid=110015320678
"TRI-LAKE TIMBERS HILL CAMPSITES",,,WI,110050744263,BAYFIELD,46.634199,-91.177282,N,0,,,,Y,https://echo.epa.gov/detailed-facility-report?fid=110050744263
"SPRING GREEN SUBD 1","1419-1425 RAMONA DR",RACINE,WI,110013080735,RACINE,42.73938,-87.88471,N,0,,,,Y,https://echo.epa.gov/detailed-facility-report?fid=110013080735
"M J BODY & PAINT INC","1809 ALLOUEZ AVE","GREEN BAY",WI,110005461801,BROWN,44.46896,-87.99237,N,0,,,,Y,https://echo.epa.gov/detailed-facility-report?fid=110005461801
"HARVEYS CORNER PUB",,,WI,110052048681,PORTAGE,44.476246,-89.49807,N,0,,,,Y,https://echo.epa.gov/detailed-facility-report?fid=110052048681
"L B WHITE CO INC","W6636 L B WHITE RD",ONALASKA,WI,110005426850,"LA CROSSE",43.910393,-91.236127,N,0,,,,Y,https://echo.epa.gov/detailed-facility-report?fid=110005426850
"PENINSULA PARKVIEW",,,WI,110050868593,DOOR,45.067808,-87.087936,N,12,,,,Y,https://echo.epa.gov/detailed-facility-report?fid=110050868593
"MILLS FLEET FARM","177 N WASHBURN RD",OSHKOSH,WI,110005478633,WINNEBAGO,44.01929,-88.58268,N,0,,,,Y,https://echo.epa.gov/detailed-facility-report?fid=110005478633
"GLEN HILLS GOLF CLUB INC",,,WI,110052014048,"ST. CROIX",45.028959,-92.447284,N,0,,,,Y,https://echo.epa.gov/detailed-facility-report?fid=110052014048
"XRIQ CORP","740 W OAKLAND AVE #9","PORT WASHINGTON",WI,110058224372,OZAUKEE,43.38362,-87.88518,N,0,,,,Y,https://echo.epa.gov/detailed-facility-report?fid=110058224372
"HERBERT W ROGERS MEMORIAL",,,WI,110050796625,ASHLAND,46.546291,-90.665154,N,0,,,,Y,https://echo.epa.gov/detailed-facility-report?fid=110050796625
"STORM WATER DEVICE","780 REGENT ST",MADISON,WI,110012180745,DANE,43.06771,-89.39874,N,0,,,,Y,https://echo.epa.gov/detailed-facility-report?fid=110012180745
"FCI OXFORD","ELK AVE & COUNTY ROAD G",OXFORD,WI,110060258858,MARQUETTE,43.865656,-89.648867,N,12,,,3218,Y,https://echo.epa.gov/detailed-facility-report?fid=110060258858
"WI DNR COPPER FALLS PARK OFFICE & BATH HOUSE SHOWERS",,,WI,110052440006,ASHLAND,46.546291,-90.665154,N,0,,,,Y,https://echo.epa.gov/detailed-facility-report?fid=110052440006
"OREILLY AUTO PARTS STORE 3845","3103 SCHOFIELD AVE",SCHOFIELD,WI,110005544615,MARATHON,44.90496,-89.58475,N,0,,,,Y,https://echo.epa.gov/detailed-facility-report?fid=110005544615
"MECHTRIX CORP","W147 N9461 HELD DR","MENOMONEE FALLS",WI,110005464363,WAUKESHA,43.190936,-88.091999,N,0,,,,Y,https://echo.epa.gov/detailed-facility-report?fid=110005464363
"KWIK TRIP 371","6300 52ND ST",KENOSHA,WI,110005412856,KENOSHA,42.588852,-87.883617,N,0,,,,Y,https://echo.epa.gov/detailed-facility-report?fid=110005412856
"LUCYS HIDEAWAY",,,WI,110053041837,ROCK,42.669931,-89.075119,N,0,,,,Y,https://echo.epa.gov/detailed-facility-report?fid=110053041837
"SCHOOL DIST OF SUPERIOR (FORMER)","1318 FISHER ST",SUPERIOR,WI,110005410732,DOUGLAS,46.722694,-92.088964,N,0,,,,Y,https://echo.epa.gov/detailed-facility-report?fid=110005410732
"FREDERIC FARMERS COOP EXCHANGE","104 TRAFFIC AVE",FREDERIC,WI,110012181511,POLK,45.659245,-92.467635,N,0,,,,Y,https://echo.epa.gov/detailed-facility-report?fid=110012181511
"BUTCHS BODY SHOP","HWY 33 W",WONEWOC,WI,110008240206,JUNEAU,43.58835,-90.321799,N,0,,,,Y,https://echo.epa.gov/detailed-facility-report?fid=110008240206
"FAWN DOE ROSA",,,WI,110052030672,,44.628484,-89.71193,N,0,,,,Y,https://echo.epa.gov/detailed-facility-report?fid=110052030672
"WE ENERGIES BSGF WIND PROJECT","N9470 CTH W",MALONE,WI,110067674537,"FOND DU LAC",43.921399,-88.29941,N,0,,,,Y,https://echo.epa.gov/detailed-facility-report?fid=110067674537
"PLYMOUTH INDUSTRIES INC","1919 COUNTY ROAD C",PLYMOUTH,WI,110006142691,SHEBOYGAN,43.76832,-88.00126,N,0,,,,Y,https://echo.epa.gov/detailed-facility-report?fid=110006142691
"HERZL CAMP - OLD CHADER",,,WI,110052006814,BURNETT,45.865255,-92.367978,N,0,,,,Y,https://echo.epa.gov/detailed-facility-report?fid=110052006814
"OCONTO RIVER PARK",,,WI,110050622518,SHAWANO,44.789641,-88.755813,N,0,,,,Y,https://echo.epa.gov/detailed-facility-report?fid=110050622518
"CLEARWATER RESORT 2 CABINS",,,WI,110052028060,DOUGLAS,46.463316,-91.89258,N,0,,,,Y,https://echo.epa.gov/detailed-facility-report?fid=110052028060
"J AND L FIBER SERVICES","831 PROGRESS AVE",WAUKESHA,WI,110000417969,WAUKESHA,42.99125,-88.24796,N,1,,,67224,Y,https://echo.epa.gov/detailed-facility-report?fid=110000417969
"GOLD'N PLUMP POULTRY - FEED MILL","N29118 STATE ROAD 93",ARCADIA,WI,110001928754,TREMPEALEAU,44.26328,-91.47316,N,,,,,Y,https://echo.epa.gov/detailed-facility-report?fid=110001928754
"OWEN WATERWORKS",,,WI,110013068580,CLARK,44.93358,-90.57743,N,0,,,,Y,https://echo.epa.gov/detailed-facility-report?fid=110013068580
"HANSEN KARL W","823 WINTER ST",SUPERIOR,WI,110005506201,DOUGLAS,46.72786,-92.08991,N,0,,,,Y,https://echo.epa.gov/detailed-facility-report?fid=110005506201
"SCHREIBER FOODS INC GBC PLANT","443 N. HENRY STREET","GREEN BAY",WI,110012180996,BROWN,44.50914,-87.97791,N,0,,,,Y,https://echo.epa.gov/detailed-facility-report?fid=110012180996
"PLEASANT PRAIRIE MHP","11703 - 60TH ST",KENOSHA,WI,110013083171,KENOSHA,42.582163,-87.949381,N,0,,,,Y,https://echo.epa.gov/detailed-facility-report?fid=110013083171
"D C EVEREST SCHOOL FOREST",,,WI,110051980488,MARATHON,44.898036,-89.757823,N,0,,,,Y,https://echo.epa.gov/detailed-facility-report?fid=110051980488
"SHAWANO AUTO SALES","939 E GREEN BAY RD",SHAWANO,WI,110005432861,SHAWANO,44.78214,-88.59478,N,0,,,,Y,https://echo.epa.gov/detailed-facility-report?fid=110005432861
"FIRESTONE STORE 29HP/016152","1222 CRESTON PARK",JANESVILLE,WI,110005519885,ROCK,42.70172,-89.00783,N,0,,,,Y,https://echo.epa.gov/detailed-facility-report?fid=110005519885
"CAMPING IN THE CLOUDS",,,WI,WI4190073,Florence,45.849646,-88.400322,N,6,,,,Y,https://echo.epa.gov/detailed-facility-report?fid=WI4190073
"SMITH ALEXIS PROPERTY","1605 W FOREST HOME AVE",MILWAUKEE,WI,110005529482,MILWAUKEE,43.00917,-87.93352,N,0,,,,Y,https://echo.epa.gov/detailed-facility-report?fid=110005529482
"JULIES PARK MOTEL",,,WI,WI4150405,Door,45.067808,-87.087936,N,0,,,,Y,https://echo.epa.gov/detailed-facility-report?fid=WI4150405
"SAWMILL PIZZA",,,WI,110063349880,POLK,45.46803,-92.453154,N,0,,,,Y,https://echo.epa.gov/detailed-facility-report?fid=110063349880
"BIRCHWOOD LODGE RESTAURANT",,,WI,110052045407,ONEIDA,45.713791,-89.536693,N,0,,,,Y,https://echo.epa.gov/detailed-facility-report?fid=110052045407
"SINGER TECHNOLOGY","3111 W MILL RD",MILWAUKEE,WI,110070634864,MILWAUKEE,43.133814,-87.950683,N,0,,,,Y,https://echo.epa.gov/detailed-facility-report?fid=110070634864
"KONICA BUSINESS MACHINES USA","W13445 SILVER SPRINGS DR","MENOMONEE FALLS",WI,110005267665,WAUKESHA,43.119273,-88.08865,N,0,,,,Y,https://echo.epa.gov/detailed-facility-report?fid=110005267665
"SULLIVAN SAN DIST 1 WWTF","N3704 CTH F, ROME, WISCONSIN",SULLIVAN,WI,110010886210,JEFFERSON,42.971444,-88.634944,Y,3,,,,Y,https://echo.epa.gov/detailed-facility-report?fid=110010886210
"THORP EQUIPMENT INC",,,WI,110052032162,CLARK,44.733596,-90.610201,N,0,,,,Y,https://echo.epa.gov/detailed-facility-report?fid=110052032162
"SUNBRITE CLEANERS","1010 MILWAUKEE AVE","SOUTH MILWAUKEE",WI,110005444251,MILWAUKEE,42.91071,-87.86147,N,0,,,,Y,https://echo.epa.gov/detailed-facility-report?fid=110005444251
"SHEBOYGAN GLASS","3209 WASHINGTON",SHEBOYGAN,WI,110005488472,SHEBOYGAN,43.71759,-87.749079,N,0,,,,Y,https://echo.epa.gov/detailed-facility-report?fid=110005488472
"WI DNR KINNICKINNIC PK ST CROIX PICNIC",,,WI,110052017893,PIERCE,44.725337,-92.426279,N,1,,,,Y,https://echo.epa.gov/detailed-facility-report?fid=110052017893
"TJS AUTO BODY INC","W2039 INDUSTRIAL DRIVE",KAUKAUNA,WI,110006461532,OUTAGAMIE,44.37652,-88.2885,N,0,,,,Y,https://echo.epa.gov/detailed-facility-report?fid=110006461532
"ST JOHNS CATHOLIC CHURCH",,,WI,110063332157,CHIPPEWA,45.069092,-91.283505,N,2,,,,Y,https://echo.epa.gov/detailed-facility-report?fid=110063332157
"AMERICAN FAMILY INSURANCE","302 N WALBRIDGE AVE",MADISON,WI,110005266014,DANE,43.10293,-89.31127,N,0,,,,Y,https://echo.epa.gov/detailed-facility-report?fid=110005266014
"RIDGELAND VILLAGE PARK",,,WI,110050727978,DUNN,44.947741,-91.89772,N,0,,,,Y,https://echo.epa.gov/detailed-facility-report?fid=110050727978
"AUTO BODY SPECIALISTS","458 N WASHINGTON ST",BERLIN,WI,110005476029,"GREEN LAKE",43.97896,-88.95688,N,0,,,,Y,https://echo.epa.gov/detailed-facility-report?fid=110005476029
"HITCHING POST",,,WI,110050860243,"GREEN LAKE",43.76141,-88.987228,N,3,,,,Y,https://echo.epa.gov/detailed-facility-report?fid=110050860243
"KEWAUNEE FABRICATIONS LLC","520 N MAIN ST",KEWAUNEE,WI,110005541574,KEWAUNEE,44.55172,-87.70324,N,0,,,38201,Y,https://echo.epa.gov/detailed-facility-report?fid=110005541574
"FULL CIRCLE REFRIGERATION","101 LOCUST","WEST BEND",WI,110064283902,WASHINGTON,43.41533,-88.17798,N,0,,,,Y,https://echo.epa.gov/detailed-facility-report?fid=110064283902
"WE ENERGIES DELAFIELD SERVICE CENTER","S13 W33800 STH 18",DELAFIELD,WI,110016861653,WAUKESHA,43.0113,-88.3858,N,0,,,,Y,https://echo.epa.gov/detailed-facility-report?fid=110016861653
"CAMP LU WI SO MO RETREAT CNTR NEW DINING HALL",,,WI,110052046594,WAUSHARA,44.112825,-89.239752,N,12,,,,Y,https://echo.epa.gov/detailed-facility-report?fid=110052046594
"WALMART SUPERCENTER #1515","W190 N9855 APPLETON AVE",GERMANTOWN,WI,110031301758,WASHINGTON,43.197791,-88.145193,N,0,,,,Y,https://echo.epa.gov/detailed-facility-report?fid=110031301758
"COMMERCIAL COMMUNICATION INC","2325 BLUEMOUND RD",WAUKESHA,WI,110005484047,WAUKESHA,43.03633,-88.180118,N,0,,,,Y,https://echo.epa.gov/detailed-facility-report?fid=110005484047
"PICNIC BASKET NASHOTAH",,,WI,110050862884,WAUKESHA,43.019308,-88.306707,N,0,,,,Y,https://echo.epa.gov/detailed-facility-report?fid=110050862884
SIDELINES,,,WI,110052012255,DOUGLAS,46.463316,-91.89258,N,0,,,,Y,https://echo.epa.gov/detailed-facility-report?fid=110052012255
"LOWE MANUFACTURING",,,WI,110049495756,RICHLAND,43.376199,-90.435693,N,0,,,,Y,https://echo.epa.gov/detailed-facility-report?fid=110049495756
"DAVES AMERICAN MUFFLER","7855 SHERIDAN RD",KENOSHA,WI,110005483805,KENOSHA,42.56075,-87.82546,N,0,,,,Y,https://echo.epa.gov/detailed-facility-report?fid=110005483805
"PAOLI PARK - HANDPUMP",,,WI,110050537683,DANE,43.067468,-89.417852,N,0,,,,Y,https://echo.epa.gov/detailed-facility-report?fid=110050537683
"PINKEYS CAPITAL AUTO BODY CORP","3859 N RICHARDS ST",MILWAUKEE,WI,110005442388,MILWAUKEE,43.08726,-87.9073,N,0,,,,Y,https://echo.epa.gov/detailed-facility-report?fid=110005442388
"PINE HARBOR RESORT 1",,,WI,110052029657,WASHBURN,45.892463,-91.796423,N,0,,,,Y,https://echo.epa.gov/detailed-facility-report?fid=110052029657
"ABERCROMBIE & FITCH","95 N MOORELAND RD SPACE B-4",BROOKFIELD,WI,110037449669,WAUKESHA,43.03312,-88.10688,N,0,,,,Y,https://echo.epa.gov/detailed-facility-report?fid=110037449669
STERLTECH,"7233 N 51ST ST",MILWAUKEE,WI,110005489015,MILWAUKEE,43.149359,-87.975485,N,0,,,,Y,https://echo.epa.gov/detailed-facility-report?fid=110005489015
"ROMAN ELECTRIC","640 S 70TH ST",MILWAUKEE,WI,110005493386,MILWAUKEE,43.02538,-87.99993,N,0,,,,Y,https://echo.epa.gov/detailed-facility-report?fid=110005493386
"ASCENSION MEDICAL GROUP - ELMBROOK MEDICAL ARTS CENTER","17000 W NORTH AVE",BROOKFIELD,WI,110070622904,WAUKESHA,43.06091,-88.12335,N,0,,,,Y,https://echo.epa.gov/detailed-facility-report?fid=110070622904
"SUBURBAN HEIGHTS MHP","N6265 SUBURBAN HEIGHTS ROAD",PARDEEVILLE,WI,110012854223,COLUMBIA,43.50374,-89.41008,N,0,,,,Y,https://echo.epa.gov/detailed-facility-report?fid=110012854223
"ALDRICH CHEMICAL CO INC","230 S EMMBER LN",MILWAUKEE,WI,110000419280,MILWAUKEE,43.030459,-87.930634,N,12,2,,19961,Y,https://echo.epa.gov/detailed-facility-report?fid=110000419280
"LAKE MILLS WASTEWATER TREATMENT FACILITY","MARINE ROAD","LAKE MILLS",WI,110039958631,JEFFERSON,43.080917,-88.89625,Y,3,,,,Y,https://echo.epa.gov/detailed-facility-report?fid=110039958631
"RANDYS MOBIL SERVICE CENTER","878 MATHER ST","GREEN BAY",WI,110005523077,BROWN,44.52714,-88.02523,N,0,,,,Y,https://echo.epa.gov/detailed-facility-report?fid=110005523077
"WI DNR FALLISON LK TRL 26 PKING",,,WI,110051991396,VILAS,46.049848,-89.501254,N,0,,,,Y,https://echo.epa.gov/detailed-facility-report?fid=110051991396
"FAITH BAPTIST CHURCH PORT WASHINGTON",,,WI,110050791620,OZAUKEE,43.360715,-87.496553,N,0,,,,Y,https://echo.epa.gov/detailed-facility-report?fid=110050791620
"GANDRUD COLLISION CENTER","1000 AUTO PLAZA DR","GREEN BAY",WI,110012179221,BROWN,44.48247,-87.96634,N,0,,,,Y,https://echo.epa.gov/detailed-facility-report?fid=110012179221
"KEWASKUM WASTEWATER TREATMENT","1000 FOND DU LAC AVENUE",KEWASKUM,WI,110005421445,WASHINGTON,43.51394,-88.2237,N,2,,,,Y,https://echo.epa.gov/detailed-facility-report?fid=110005421445
"FRIENDS OF HUNT HILL AUDUBON SANCTUARY - RENTAL CABINS",,,WI,110050590455,WASHBURN,45.892463,-91.796423,N,0,,,,Y,https://echo.epa.gov/detailed-facility-report?fid=110050590455
"DAIRYLAND HAMILTON BUSES INC - LANNON","19880 W MAIN ST",LANNON,WI,110005479883,WAUKESHA,43.15477,-88.15743,N,0,,,,Y,https://echo.epa.gov/detailed-facility-report?fid=110005479883
"LAX CO GOOSE IS PK MIDDLE CMPGD",,,WI,110051987711,"LA CROSSE",43.908222,-91.111758,N,0,,,,Y,https://echo.epa.gov/detailed-facility-report?fid=110051987711
"MILAS EUROPEAN BAKERY & CAFE",,,WI,110050830954,OZAUKEE,43.360715,-87.496553,N,0,,,,Y,https://echo.epa.gov/detailed-facility-report?fid=110050830954
"ST JOSEPH EQUIPMENT INC","W2795 SHERRY LN","LA CROSSE",WI,110005541770,"LA CROSSE",43.78486,-91.04579,N,0,,,,Y,https://echo.epa.gov/detailed-facility-report?fid=110005541770
"HARNISCHFEGER PARK SHOWER BLDG",,,WI,110063374600,DODGE,43.422706,-88.704379,N,0,,,,Y,https://echo.epa.gov/detailed-facility-report?fid=110063374600
"CHUTE POND PK FIELDHOUSE",,,WI,110051986936,OCONTO,44.996575,-88.206516,N,0,,,,Y,https://echo.epa.gov/detailed-facility-report?fid=110051986936
"J C PENNEY CORP INC STORE #1995","503 E IVES ST STE 200",MARSHFIELD,WI,110033624745,WOOD,44.67701,-90.16063,N,0,,,,Y,https://echo.epa.gov/detailed-facility-report?fid=110033624745
"YMCA CAMP ALEXANDER 4",,,WI,110050814017,WOOD,44.461413,-90.038825,N,0,,,,Y,https://echo.epa.gov/detailed-facility-report?fid=110050814017
"FRONTIER BAR & CMPGD",,,WI,110052432658,IRON,46.32655,-90.261299,N,0,,,,Y,https://echo.epa.gov/detailed-facility-report?fid=110052432658
"ANTHONYS RISTORANTE",,,WI,110052045513,ONEIDA,45.713791,-89.536693,N,0,,,,Y,https://echo.epa.gov/detailed-facility-report?fid=110052045513
"WOODLAND THE",,,WI,110051981851,"EAU CLAIRE",44.726355,-91.286414,N,0,,,,Y,https://echo.epa.gov/detailed-facility-report?fid=110051981851
"BECHER PETRO PANTRY","610 WEST BECHER STREET",MILWAUKEE,WI,110005517226,MILWAUKEE,43.00646,-87.91906,N,0,,,,Y,https://echo.epa.gov/detailed-facility-report?fid=110005517226
"ROSE GLEN ELEMENTARY",,,WI,110050815597,WAUKESHA,43.019308,-88.306707,N,0,,,,Y,https://echo.epa.gov/detailed-facility-report?fid=110050815597
"BLUE TOP RESORT",,,WI,110049956473,WAUPACA,44.478004,-88.967006,N,0,,,,Y,https://echo.epa.gov/detailed-facility-report?fid=110049956473
"KANSASVILLE QUICK MART",,,WI,110050549634,RACINE,42.754075,-87.414676,N,0,,,,Y,https://echo.epa.gov/detailed-facility-report?fid=110050549634
"BLACK RIVER FALLS WATERWORKS","119 N WATER ST","BLACK RIVER FALLS",WI,110012845127,JACKSON,44.296231,-90.847312,N,1,,,,Y,https://echo.epa.gov/detailed-facility-report?fid=110012845127
"MERCY MALL CLINIC & PHARMACY","1010 N WASHINGTON ST",JANESVILLE,WI,110041687350,ROCK,42.694011,-89.037164,N,0,,,,Y,https://echo.epa.gov/detailed-facility-report?fid=110041687350
"GREEN BAY AND WESTERN RAILROAD CO","2155 HUTSON RD","GREEN BAY",WI,110005421800,BROWN,44.52889,-88.08313,N,0,,,,Y,https://echo.epa.gov/detailed-facility-report?fid=110005421800
"2930 E BURLEIGH ST","2930 W BURLEIGH ST",MILWAUKEE,WI,110005496702,MILWAUKEE,43.075213,-87.95011,N,0,,,,Y,https://echo.epa.gov/detailed-facility-report?fid=110005496702
"PETRO CHEMICAL SYSTEMS INC","101 CHRISTOPHER CT",EDEN,WI,110005544027,"FOND DU LAC",43.69004,-88.36966,N,0,,,,Y,https://echo.epa.gov/detailed-facility-report?fid=110005544027
"CARDINAL ROTAR","1277 E HOXIE ST","SPRING GREEN",WI,110012178632,SAUK,43.17204,-90.05229,N,0,,,4838,Y,https://echo.epa.gov/detailed-facility-report?fid=110012178632
"SCHMITZ READY MIX INC - MEQUON FACILITY","11050 NORTH INDUSTRIAL DRIVE",MEQUON,WI,110006462602,OZAUKEE,43.21874,-87.98737,N,0,,,,Y,https://echo.epa.gov/detailed-facility-report?fid=110006462602
"CARRIAGE AUTO MART","9706 W GREENFIELD AVE","WEST ALLIS",WI,110070634837,MILWAUKEE,43.01656,-88.0336,N,0,,,,Y,https://echo.epa.gov/detailed-facility-report?fid=110070634837
"GUNDERSEN HEALTH SYSTEM HILLSBORO CLINIC","300 WATER AVE",HILLSBORO,WI,110043228085,VERNON,43.64897,-90.34651,N,0,,,,Y,https://echo.epa.gov/detailed-facility-report?fid=110043228085
"MERITER WISCONSIN HEART - SAUK","207 WATER ST","SAUK CITY",WI,110045528924,SAUK,43.280563,-89.718555,N,0,,,,Y,https://echo.epa.gov/detailed-facility-report?fid=110045528924
"GOFFMAN GOFFMAN & WITT","18224 116TH ST",BRISTOL,WI,110005482272,KENOSHA,42.5107,-88.02896,N,0,,,,Y,https://echo.epa.gov/detailed-facility-report?fid=110005482272
"GLIDDEN LODGE CONDOS",,,WI,110050843487,DOOR,45.067808,-87.087936,N,2,,,,Y,https://echo.epa.gov/detailed-facility-report?fid=110050843487
"BOXED AND BURLAP",,,WI,WI2651867,Walworth,42.66811,-88.541731,N,3,,,,Y,https://echo.epa.gov/detailed-facility-report?fid=WI2651867
"RACINE RAILROAD PRODUCTS","1955 NORWOOD CT","MOUNT PLEASANT",WI,110055477363,RACINE,42.68496,-87.80635,N,0,,,,Y,https://echo.epa.gov/detailed-facility-report?fid=110055477363
"GENESEE TOWN HALL",,,WI,110050838457,WAUKESHA,43.019308,-88.306707,N,0,,,,Y,https://echo.epa.gov/detailed-facility-report?fid=110050838457
"BEACONS OF MINOCQUA LODGE",,,WI,110052041946,ONEIDA,45.713791,-89.536693,N,0,,,,Y,https://echo.epa.gov/detailed-facility-report?fid=110052041946
"MT PISGAH WESLEYAN CHURCH",,,WI,110051969330,VERNON,43.599858,-90.815226,N,0,,,,Y,https://echo.epa.gov/detailed-facility-report?fid=110051969330
"ABC FURNITURE SERV","N3404 TIPPERARY RD",CASCADE,WI,110006463022,SHEBOYGAN,43.66347,-88.03017,N,0,,,,Y,https://echo.epa.gov/detailed-facility-report?fid=110006463022
"TWIN VALLEY FREE WILL BAPTIST CH",,,WI,110049847010,DANE,43.067468,-89.417852,N,0,,,,Y,https://echo.epa.gov/detailed-facility-report?fid=110049847010
"WALMART #2335","4198 NAKOOSA TRAIL",MADISON,WI,110006536061,DANE,43.10966,-89.31156,N,0,,,,Y,https://echo.epa.gov/detailed-facility-report?fid=110006536061
"BUDGET TRANSMISSION","104 MAIN ST",OSSEO,WI,110005471275,TREMPEALEAU,44.57584,-91.22191,N,0,,,,Y,https://echo.epa.gov/detailed-facility-report?fid=110005471275
"OREILLY AUTO PARTS STORE 1512","675 STH 70",GRANSTBURG,WI,110070639031,BURNETT,45.754762,-92.723652,N,0,,,,Y,https://echo.epa.gov/detailed-facility-report?fid=110070639031
"THE MARBLE SHOP","2310 CUNNINGHAM ST","LA CROSSE",WI,110005529847,"LA CROSSE",43.85683,-91.22231,N,0,,,,Y,https://echo.epa.gov/detailed-facility-report?fid=110005529847
"HOLY CROSS PARISH",,,WI,110049726622,KENOSHA,42.579703,-87.424898,N,0,,,,Y,https://echo.epa.gov/detailed-facility-report?fid=110049726622
"WOLF MOBILE HOME PARK","N431 TWINKLING STAR RD",WHITEWATER,WI,110013088069,JEFFERSON,42.85447,-88.79649,N,2,,,,Y,https://echo.epa.gov/detailed-facility-report?fid=110013088069
"CAPTAIN DIX RESORT",,,WI,110051988523,ADAMS,43.973763,-89.767223,N,0,,,,Y,https://echo.epa.gov/detailed-facility-report?fid=110051988523
"COLLISION SPECIALISTS SSE","415 JEFFERSON",FENNIMORE,WI,110005476190,GRANT,42.988239,-90.654463,N,1,,,,Y,https://echo.epa.gov/detailed-facility-report?fid=110005476190
"WILDERNESS FELLOWSHIP 7 MAIN HOUSE OFFICE",,,WI,110063350680,BURNETT,45.865255,-92.367978,N,0,,,,Y,https://echo.epa.gov/detailed-facility-report?fid=110063350680
"DOLLAR GENERAL STORE #10102","328 N 4TH ST",TOMAHAWK,WI,110070123561,LINCOLN,45.47479,-89.72922,N,0,,,,Y,https://echo.epa.gov/detailed-facility-report?fid=110070123561
"NORTH AMERICAN INDUSTRIAL SERVICES INC","6511 HWY 13 S","WISCONSIN RAPIDS",WI,110006142183,WOOD,44.332267,-89.813291,N,0,,,,Y,https://echo.epa.gov/detailed-facility-report?fid=110006142183
"HOLY FAMILY CATHOLIC CHURCH",,,WI,110050821919,ONEIDA,45.713791,-89.536693,N,0,,,,Y,https://echo.epa.gov/detailed-facility-report?fid=110050821919
"DAVES WESTSIDE SERV","3219 W 52ND ST",KENOSHA,WI,110005494615,KENOSHA,42.58821,-87.84889,N,0,,,,Y,https://echo.epa.gov/detailed-facility-report?fid=110005494615
"SYMDEN MOTORS","9277 BUS HWY 18-151","MT HOREB",WI,110070640354,DANE,42.97424,-89.737134,N,0,,,,Y,https://echo.epa.gov/detailed-facility-report?fid=110070640354
"WMWI - LADYSMITH","W8527 GOKEY RD",LADYSMITH,WI,110005509761,RUSK,45.45094,-91.11321,N,0,,,,Y,https://echo.epa.gov/detailed-facility-report?fid=110005509761
"DOLLAR BILLS",,,WI,110052038718,PORTAGE,44.476246,-89.49807,N,0,,,,Y,https://echo.epa.gov/detailed-facility-report?fid=110052038718
"PENSKE TRUCK LEASING CO LP","6485 STACK DR",DEFOREST,WI,WIR000172429,DANE,43.207704,-89.343038,N,0,,,,Y,https://echo.epa.gov/detailed-facility-report?fid=WIR000172429
"LAFARGE NORTH AMERICA INC.","125 9TH ST.","GREEN BAY",WI,110070345523,,44.50123,-88.0272,N,0,,,,Y,https://echo.epa.gov/detailed-facility-report?fid=110070345523
"RODS CUSTOM PAINTING","N14439 CO HWY E",CURTISS,WI,110070637951,CLARK,44.942508,-90.444435,N,0,,,,Y,https://echo.epa.gov/detailed-facility-report?fid=110070637951
"WASHINGTON ISLAND BALL FIELD",,,WI,110050833979,DOOR,45.067808,-87.087936,N,0,,,,Y,https://echo.epa.gov/detailed-facility-report?fid=110050833979
"SSM HEALTH CANCER CENTER","1200 JOHN Q HAMMONS DR",MADISON,WI,110067533770,DANE,43.08301,-89.52393,N,0,,,,Y,https://echo.epa.gov/detailed-facility-report?fid=110067533770
"WI DOT BRIDGE B-40-587","RAMP I43 NB-SILVER SPRING OVER RAMP TO I43 NB",MILWAUKEE,WI,WIR000172148,MILWAUKEE,43.159227,-87.925361,N,0,,,,Y,https://echo.epa.gov/detailed-facility-report?fid=WIR000172148
WILLOWDALE,,,WI,110049836031,ROCK,42.669931,-89.075119,N,0,,,,Y,https://echo.epa.gov/detailed-facility-report?fid=110049836031
"MCCAUSLIN BROOK GOLF COURSE CLUBHOUSE",,,WI,110049791935,OCONTO,44.996575,-88.206516,N,0,,,,Y,https://echo.epa.gov/detailed-facility-report?fid=110049791935
"JONS WEST END BODY SHOP","1721 W MAIN ST",ASHLAND,WI,110009520250,ASHLAND,46.58235,-90.90407,N,0,,,,Y,https://echo.epa.gov/detailed-facility-report?fid=110009520250
"CONNELLS SUPPER CLUB",,,WI,110052008144,CHIPPEWA,45.069092,-91.283505,N,12,,,,Y,https://echo.epa.gov/detailed-facility-report?fid=110052008144
"SUNDAY'S FABRICARE CENTER","HWY 82 E",MAUSTON,WI,110008242062,JUNEAU,43.773188,-90.055207,N,0,,,,Y,https://echo.epa.gov/detailed-facility-report?fid=110008242062
"WAL-MART SUPERCENTER #1931","2121 LINCOLN ST",RHINELANDER,WI,110006536043,ONEIDA,45.633337,-89.381242,N,0,,,,Y,https://echo.epa.gov/detailed-facility-report?fid=110006536043
"SCHLYTTER ROBERT","2208 E MORELAND BLVD",WAUKESHA,WI,110005485162,WAUKESHA,43.02949,-88.18423,N,0,,,,Y,https://echo.epa.gov/detailed-facility-report?fid=110005485162
"LITTLE SWEDEN LODGE",,,WI,110050834059,DOOR,45.067808,-87.087936,N,0,,,,Y,https://echo.epa.gov/detailed-facility-report?fid=110050834059
"J & D AUTOMOTIVE","RT 4 GARTON RD",PLYMOUTH,WI,110008240402,SHEBOYGAN,43.819219,-87.946403,N,0,,,,Y,https://echo.epa.gov/detailed-facility-report?fid=110008240402
"LAKELAND CMPGD STORE",,,WI,110050744637,ROCK,42.669931,-89.075119,N,0,,,,Y,https://echo.epa.gov/detailed-facility-report?fid=110050744637
"COLOMA OIL DIV OF CONDON OIL","108 S FRONT ST",COLOMA,WI,110005505346,WAUSHARA,44.03218,-89.52214,N,0,,,,Y,https://echo.epa.gov/detailed-facility-report?fid=110005505346
"A J MANUFACTURING INC","1217 OAK ST",BLOOMER,WI,110005426832,CHIPPEWA,45.10371,-91.49186,N,0,,,,Y,https://echo.epa.gov/detailed-facility-report?fid=110005426832
"WISDOT BRIDGE B-67-172","CTH KC OVER ST 16",HARTLAND,WI,110070640533,WAUKESHA,43.200358,-88.352392,N,0,,,,Y,https://echo.epa.gov/detailed-facility-report?fid=110070640533
"JUMPERS BAR",,,WI,110050618006,MARATHON,44.898036,-89.757823,N,0,,,,Y,https://echo.epa.gov/detailed-facility-report?fid=110050618006
"WAUKESHA LIME & STONE CO","W233 N507 HWY 164",WAUKESHA,WI,110006141718,WAUKESHA,43.01331,-88.20025,N,0,,,,Y,https://echo.epa.gov/detailed-facility-report?fid=110006141718
"CVS PHARMACY #8776","1122 WEST BLVD",RACINE,WI,110045396264,RACINE,42.71956,-87.81619,N,0,,,,Y,https://echo.epa.gov/detailed-facility-report?fid=110045396264
"OXBO RESORT",,,WI,110052044809,SAWYER,45.864913,-91.14713,N,12,,,,Y,https://echo.epa.gov/detailed-facility-report?fid=110052044809
"CAST A WAY TRAILER PARK",,,WI,110051984910,POLK,45.46803,-92.453154,N,12,,,,Y,https://echo.epa.gov/detailed-facility-report?fid=110051984910
"CARS R US","3000 S MAIN ST","RICE LAKE",WI,110005448890,BARRON,45.4698,-91.73547,N,0,,,,Y,https://echo.epa.gov/detailed-facility-report?fid=110005448890
"MILWAUKEE LUTHERAN HIGH SCHOOL","9700 W GRANTOSA DR",MILWAUKEE,WI,110005447463,MILWAUKEE,43.095449,-88.033585,N,0,,,,Y,https://echo.epa.gov/detailed-facility-report?fid=110005447463
"ULTRA TOOL CO INC","390 INDUSTRIAL AVE",GRANTSBURG,WI,110006435802,BURNETT,45.7901,-92.69,N,0,,,,Y,https://echo.epa.gov/detailed-facility-report?fid=110006435802
"WI DNR PERROT 1 SHOP WELL",,,WI,110050576033,TREMPEALEAU,44.30305,-91.358867,N,7,,,,Y,https://echo.epa.gov/detailed-facility-report?fid=110050576033
"SPEEDWAY #4202","6340 LAKE RD",WINDSOR,WI,110005513729,DANE,43.19503,-89.34312,N,0,,,,Y,https://echo.epa.gov/detailed-facility-report?fid=110005513729
"WSI 8500 MARTIN DR",,,WI,110051979016,WINNEBAGO,44.085707,-88.668149,N,0,,,,Y,https://echo.epa.gov/detailed-facility-report?fid=110051979016
"COACHMANS INN MOTEL POOL, MOTEL BLDGS 1 & 2",,,WI,110049893371,DANE,43.067468,-89.417852,N,0,,,,Y,https://echo.epa.gov/detailed-facility-report?fid=110049893371
